timestamp,timestamp_sample,device_id,magnetometer_ga[0],magnetometer_ga[1],magnetometer_ga[2],calibration_count
15161495,15153957,197388,0.20183659,-0.08364867,0.4284916,0
15251502,15211604,197388,0.19884095,-0.08175948,0.4271947,0
15281525,15259137,197388,0.1995601,-0.07984015,0.4295828,0
15641518,15635968,197388,0.19800925,-0.07993625,0.43197298,0
15665514,15657438,197388,0.19805613,-0.08564374,0.43514067,0
15689524,15683291,197388,0.20284812,-0.08648157,0.43286026,0
15713479,15707701,197388,0.19804686,-0.08078927,0.42835832,0
15737516,15731296,197388,0.20430002,-0.08276436,0.4326064,0
15764519,15756202,197388,0.20626545,-0.082252145,0.42853555,0
15788519,15780621,197388,0.19368328,-0.078910634,0.43323874,0
15809519,15805754,197388,0.19660139,-0.084248975,0.43055487,0
15836491,15828050,197388,0.20304129,-0.08217473,0.4276091,0
15860504,15852289,197388,0.20206694,-0.081405655,0.43358827,0
15884510,15875795,197388,0.19971189,-0.082772166,0.4267432,0
15905481,15899295,197388,0.19877464,-0.08354372,0.4291689,0
15932505,15924265,197388,0.1976037,-0.08145122,0.42986727,0
15956503,15948661,197388,0.19407126,-0.082090735,0.435167,0
15980495,15972662,197388,0.20251736,-0.08527045,0.42753667,0
16004500,15996647,197388,0.20220084,-0.08356074,0.42859942,0
16028503,16020667,197388,0.19884184,-0.07964206,0.42666975,0
16052498,16044670,197388,0.20083332,-0.07955623,0.42753172,0
16076491,16068622,197388,0.20130587,-0.08286327,0.43158555,0
16100510,16092706,197388,0.20338637,-0.08201127,0.42819142,0
16124498,16116664,197388,0.203904,-0.08442256,0.43005866,0
16148491,16140974,197388,0.20005225,-0.082033984,0.4271494,0
16172504,16164672,197388,0.19649492,-0.080767155,0.42560565,0
16196498,16188794,197388,0.19624399,-0.082923464,0.4286189,0
16220491,16212570,197388,0.2043164,-0.07783277,0.43531194,0
16244498,16236804,197388,0.2021428,-0.0787527,0.43110505,0
16268510,16260704,197388,0.20453297,-0.089919925,0.4273864,0
16292505,16284651,197388,0.1998885,-0.08149957,0.42311645,0
16316495,16308430,197388,0.20188047,-0.08408798,0.4298849,0
16340494,16332720,197388,0.19918996,-0.083577804,0.42913175,0
16364510,16354664,197388,0.20284042,-0.0796017,0.43276426,0
16388498,16380704,197388,0.20421046,-0.08113268,0.42730665,0
16412498,16404630,197388,0.2006923,-0.08514983,0.43243265,0
16436498,16428840,197388,0.19971398,-0.08210062,0.43115872,0
16460491,16452861,197388,0.19345775,-0.07927064,0.42627496,0
16484510,16475108,197388,0.2067905,-0.08095794,0.43255615,0
16508494,16501267,197388,0.20399989,-0.08054687,0.4272835,0
16532502,16523411,197388,0.19944382,-0.08086043,0.42669123,0
16556491,16547609,197388,0.20410937,-0.07840142,0.42606103,0
16580503,16573640,197388,0.20352899,-0.08238183,0.42684245,0
16604508,16595677,197388,0.19867507,-0.08235915,0.42747635,0
16628491,16621666,197388,0.19624487,-0.078707375,0.4286368,0
16652504,16645734,197388,0.19757971,-0.079513155,0.4230736,0
16676503,16668098,197388,0.19968125,-0.08533985,0.42958313,0
16700491,16694069,197388,0.19887492,-0.084406,0.43500748,0
16724498,16718039,197388,0.20156878,-0.07539681,0.4278776,0
16748498,16742035,197388,0.20255949,-0.080933705,0.4331893,0
16775495,16766564,197388,0.20127532,-0.08044471,0.42859992,0
16799511,16791022,197388,0.19895639,-0.08171195,0.42673725,0
16823495,16814998,197388,0.20100607,-0.08010213,0.42751878,0
16847511,16839075,197388,0.20185104,-0.08463062,0.42903852,0
16871505,16863021,197388,0.19666734,-0.081530824,0.4319022,0
16895511,16887015,197388,0.19879808,-0.0816749,0.42938465,0
16919505,16910988,197388,0.20029604,-0.07461537,0.4274063,0
16943495,16932971,197388,0.20264804,-0.08179048,0.43015316,0
16967505,16959074,197388,0.20164877,-0.08379106,0.430062,0
16991495,16983041,197388,0.19787425,-0.08345355,0.43023312,0
17015495,17007031,197388,0.20041461,-0.08205948,0.42500255,0
17039511,17028980,197388,0.2017101,-0.0846466,0.43089688,0
17063498,17055025,197388,0.20009716,-0.07974728,0.42937496,0
17087522,17079065,197388,0.20298311,-0.08166572,0.42540574,0
17111491,17103282,197388,0.20310979,-0.07929669,0.43020386,0
17135504,17127690,197388,0.20448676,-0.0795002,0.42948472,0
17159504,17150118,197388,0.19993615,-0.08333671,0.43206236,0
17183491,17175905,197388,0.20323944,-0.08500181,0.43147284,0
17207504,17199892,197388,0.19845116,-0.08115924,0.4312694,0
17231498,17224126,197388,0.20103002,-0.07547954,0.4309867,0
17255477,17248264,197388,0.19672823,-0.08572805,0.42879868,0
17279502,17270263,197388,0.20469254,-0.08182329,0.43193996,0
17303504,17296436,197388,0.19303623,-0.0837157,0.43084303,0
17327510,17320601,197388,0.19916117,-0.08091968,0.42787725,0
17351495,17344638,197388,0.19839352,-0.07608773,0.43191612,0
17375504,17366682,197388,0.20254111,-0.07695046,0.4313689,0
17399510,17392727,197388,0.19852725,-0.08132486,0.42388278,0
17423502,17416633,197388,0.20425084,-0.08296515,0.43146074,0
17447510,17440881,197388,0.19884938,-0.080278814,0.43344384,0
17471491,17464664,197388,0.2009714,-0.084952,0.43035567,0
17495504,17488659,197388,0.20178059,-0.07504268,0.42753893,0
17519501,17512670,197388,0.19826373,-0.08687848,0.43225306,0
17543498,17536615,197388,0.20295481,-0.082630426,0.4323467,0
17567502,17560706,197388,0.19696295,-0.078102924,0.43498784,0
17591495,17582531,197388,0.20223823,-0.07983355,0.42877445,0
17615495,17606668,197388,0.20365334,-0.080594495,0.42859453,0
17639511,17632593,197388,0.2043877,-0.079021916,0.4286411,0
17663498,17654782,197388,0.19944972,-0.07907733,0.4290905,0
17687498,17680790,197388,0.20218062,-0.07934192,0.43232167,0
17711504,17704903,197388,0.20529327,-0.08020741,0.43062282,0
17735495,17728952,197388,0.20548719,-0.08122297,0.43439054,0
17759505,17752999,197388,0.20266809,-0.08451526,0.42837805,0
17783504,17776857,197388,0.19803357,-0.08101772,0.42891505,0
17807506,17800859,197388,0.19942206,-0.08058435,0.42754793,0
17831491,17824942,197388,0.20080277,-0.08734363,0.4311328,0
17855504,17847049,197388,0.20581333,-0.07836959,0.43020368,0
17879510,17871120,197388,0.19982335,-0.08102121,0.4305073,0
17903491,17896835,197388,0.20163566,-0.08037059,0.42616493,0
17927505,17918652,197388,0.20133018,-0.08014397,0.43038702,0
17951504,17944684,197388,0.20278144,-0.080184385,0.43033302,0
17975504,17968661,197388,0.19945917,-0.08006893,0.43151718,0
17999501,17992633,197388,0.20213795,-0.08540483,0.42825344,0
18023491,18014834,197388,0.2008199,-0.082341045,0.43068758,0
18047499,18040903,197388,0.20243955,-0.079940364,0.4282779,0
18074502,18065291,197388,0.19835559,-0.08164106,0.4307963,0
18107506,18092490,197388,0.19932234,-0.08134919,0.42887205,0
18131508,18125151,197388,0.20314804,-0.0828716,0.42882356,0
18155506,18149103,197388,0.20084652,-0.079655975,0.4311564,0
18176495,18171225,197388,0.19630368,-0.083507285,0.42956424,0
18206501,18197711,197388,0.20127167,-0.08431236,0.426888,0
18230504,18221774,197388,0.2016519,-0.083050996,0.43308756,0
18266487,18250546,197388,0.20441666,-0.079973206,0.4268589,0
18290485,18280162,197388,0.19917144,-0.08176249,0.42832255,0
18314491,18305884,197388,0.20385778,-0.08183125,0.4342096,0
18338488,18327836,197388,0.1993727,-0.08419454,0.42651272,0
18362494,18353798,197388,0.20177546,-0.08115959,0.43041122,0
18386496,18377758,197388,0.20342824,-0.08422065,0.43079987,0
18410507,18401919,197388,0.20298515,-0.08192648,0.42990085,0
18434508,18423890,197388,0.20171177,-0.08135459,0.4303678,0
18458489,18449864,197388,0.20211625,-0.08218771,0.428383,0
18482494,18473791,197388,0.20143788,-0.07875043,0.43305844,0
18506497,18497756,197388,0.20097998,-0.08115102,0.42888927,0
18530501,18521904,197388,0.20140815,-0.081070766,0.43340528,0
18554494,18543720,197388,0.20230979,-0.083604485,0.43133748,0
18578504,18569780,197388,0.20153941,-0.07980712,0.4298669,0
18602498,18593896,197388,0.19899526,-0.081614174,0.43068272,0
18626485,18617803,197388,0.19828647,-0.077341795,0.43106353,0
18650497,18641869,197388,0.20044209,-0.07993817,0.429431,0
18674494,18665788,197388,0.20460528,-0.08144222,0.42804313,0
18698486,18689859,197388,0.1959267,-0.08674184,0.42857325,0
18722494,18713863,197388,0.20048523,-0.08344006,0.42771637,0
18746504,18736069,197388,0.20539087,-0.08635254,0.42807192,0
18770497,18760041,197388,0.19911034,-0.08364645,0.42926216,0
18794491,18785857,197388,0.19889972,-0.086032525,0.42956418,0
18818498,18810011,197388,0.20011824,-0.07981704,0.4256591,0
18842491,18834033,197388,0.19958895,-0.08054205,0.4270806,0
18866497,18858117,197388,0.20142308,-0.08433137,0.42340118,0
18890497,18882157,197388,0.19886574,-0.08312832,0.4285652,0
18914503,18906319,197388,0.19699451,-0.08528212,0.4273829,0
18938485,18930892,197388,0.20139599,-0.082797185,0.4304222,0
18962494,18954819,197388,0.19860873,-0.082691416,0.42873967,0
18986500,18978842,197388,0.1977962,-0.08101128,0.42732257,0
19010486,19002879,197388,0.20311268,-0.07976776,0.4299908,0
19034503,19026926,197388,0.20238663,-0.08248465,0.42821574,0
19058486,19048942,197388,0.20198447,-0.08376674,0.4308151,0
19082499,19074882,197388,0.19855583,-0.08320472,0.4322203,0
19106489,19098902,197388,0.20000403,-0.08108835,0.4319641,0
19130497,19123054,197388,0.20038378,-0.08343356,0.42730588,0
19154492,19146896,197388,0.19859102,-0.08139162,0.42820045,0
19178485,19170947,197388,0.20085074,-0.076132745,0.43114358,0
19202496,19194891,197388,0.20217134,-0.08249431,0.43109924,0
19226485,19219185,197388,0.20375353,-0.083249405,0.42698526,0
19250491,19242958,197388,0.20152096,-0.07947112,0.4309268,0
19274495,19267004,197388,0.19707376,-0.08208896,0.43288997,0
19298496,19289356,197388,0.20024171,-0.0829142,0.4298926,0
19322494,19315122,197388,0.20284899,-0.078292206,0.42664436,0
19346489,19339245,197388,0.20172068,-0.07805551,0.4274513,0
19370497,19363211,197388,0.19695042,-0.07815903,0.42407733,0
19394492,19387686,197388,0.20150913,-0.08137521,0.42840463,0
19418493,19411527,197388,0.19717991,-0.0820381,0.43111402,0
19442494,19436160,197388,0.20091555,-0.08193722,0.42947048,0
19466485,19459880,197388,0.19666824,-0.08187474,0.42544684,0
19490497,19484268,197388,0.20471294,-0.08379917,0.43046525,0
19514494,19507940,197388,0.20328453,-0.07662605,0.43549678,0
19538484,19531944,197388,0.20228985,-0.07715059,0.4281348,0
19562492,19554252,197388,0.20149839,-0.08396247,0.43157455,0
19586502,19580198,197388,0.1971313,-0.08472842,0.42702317,0
19610486,19604501,197388,0.19956431,-0.08853243,0.42272186,0
19634494,19628264,197388,0.20367894,-0.08653861,0.43089497,0
19661501,19652744,197388,0.20369941,-0.08412942,0.43128085,0
19685511,19674725,197388,0.20140025,-0.081757165,0.42997497,0
19709505,19700799,197388,0.20541877,-0.08412777,0.42606217,0
19733517,19724918,197388,0.2040934,-0.08505753,0.43093067,0
19757508,19749084,197388,0.19953898,-0.08491287,0.43269286,0
19781499,19772940,197388,0.20503774,-0.08655925,0.42163736,0
19805510,19796968,197388,0.20459124,-0.08180888,0.42727184,0
19829515,19820863,197388,0.2037966,-0.08153722,0.42545968,0
19853502,19845125,197388,0.2008804,-0.080743685,0.42975068,0
19877504,19869028,197388,0.19938925,-0.08556503,0.4282171,0
19901505,19892927,197388,0.20414785,-0.08352618,0.4274232,0
19925501,19916903,197388,0.20382936,-0.08811394,0.42796528,0
19949505,19941110,197388,0.2044673,-0.07920244,0.4321278,0
19973510,19965047,197388,0.20220427,-0.08561539,0.42878127,0
19997508,19988859,197388,0.19970849,-0.08580726,0.42738545,0
20021504,20013105,197388,0.20118329,-0.07953423,0.42353338,0
20045510,20035228,197388,0.20433667,-0.08055068,0.4266997,0
20069511,20061563,197388,0.19939777,-0.07882999,0.4249528,0
20093501,20085963,197388,0.20057772,-0.08204779,0.43205982,0
20117509,20109889,197388,0.204245,-0.08096242,0.4315359,0
20141501,20133910,197388,0.20012763,-0.081250116,0.4270125,0
20165503,20158050,197388,0.2012277,-0.08325997,0.4306332,0
20189508,20182015,197388,0.19997421,-0.0810583,0.42853725,0
20213510,20205953,197388,0.2026997,-0.08438659,0.42994425,0
20237511,20229987,197388,0.2002216,-0.0837657,0.42699623,0
20261510,20254063,197388,0.20215961,-0.0784169,0.4281281,0
20285499,20278049,197388,0.20344603,-0.08035861,0.4293561,0
20309508,20302068,197388,0.20130378,-0.07835603,0.43473017,0
20333498,20326061,197388,0.19939575,-0.07899826,0.43206567,0
20357505,20350119,197388,0.19940266,-0.07893655,0.42997482,0
20381498,20372050,197388,0.20119396,-0.07994446,0.42791146,0
20405518,20398060,197388,0.19992113,-0.07967265,0.4295203,0
20429509,20422043,197388,0.20225428,-0.07797764,0.4326676,0
20453511,20446020,197388,0.2006506,-0.07711594,0.42561892,0
20477517,20468035,197388,0.19898182,-0.07913084,0.42724848,0
20501498,20494125,197388,0.20274228,-0.07923859,0.42994624,0
20525498,20516063,197388,0.2013959,-0.07808327,0.43254614,0
20549505,20540118,197388,0.20345801,-0.07581541,0.42675412,0
20573517,20566030,197388,0.20094115,-0.08327574,0.43108013,0
20597511,20590099,197388,0.20296639,-0.07435915,0.43473142,0
20621498,20613899,197388,0.20296851,-0.077589154,0.43352973,0
20645511,20637923,197388,0.20196036,-0.07655444,0.42915624,0
20669504,20661907,197388,0.19665594,-0.07877153,0.4352666,0
20693501,20685916,197388,0.2039054,-0.08012081,0.42558447,0
20717508,20709914,197388,0.20307627,-0.07933365,0.42806828,0
20741511,20733895,197388,0.20011002,-0.07549915,0.4304132,0
20765502,20757910,197388,0.19621871,-0.080292016,0.4276278,0
20789505,20781905,197388,0.19869262,-0.08215767,0.43196952,0
20813504,20806040,197388,0.2007494,-0.080379665,0.43106142,0
20837505,20830028,197388,0.20328453,-0.0779168,0.42629236,0
20861511,20852193,197388,0.1951396,-0.075811476,0.4262304,0
20885510,20878259,197388,0.20045954,-0.078384824,0.42572266,0
20909519,20902801,197388,0.20257752,-0.08063838,0.42790616,0
20933524,20926950,197388,0.19838661,-0.0823667,0.43277133,0
20957505,20951071,197388,0.20492199,-0.07743331,0.43075413,0
20981498,20975095,197388,0.20346245,-0.078250036,0.43400073,0
21005498,20999214,197388,0.19617946,-0.07918871,0.43125576,0
21029517,21023153,197388,0.19852674,-0.07268952,0.4283875,0
21053510,21047199,197388,0.19945605,-0.076393954,0.4252934,0
21077511,21071181,197388,0.20203888,-0.0799293,0.431559,0
21101498,21095115,197388,0.20253935,-0.08053881,0.42968655,0
21125511,21119128,197388,0.20151064,-0.07868765,0.429238,0
21149507,21143117,197388,0.20345262,-0.077059716,0.43400717,0
21173501,21167175,197388,0.19519234,-0.07427591,0.42794052,0
21197521,21191129,197388,0.20186186,-0.08043277,0.42807996,0
21221510,21215110,197388,0.19861859,-0.07956052,0.43125498,0
21245509,21239103,197388,0.20136043,-0.08079556,0.42801338,0
21269519,21263093,197388,0.20005786,-0.07498625,0.42940378,0
21293499,21287181,197388,0.2027234,-0.07714936,0.43631124,0
21317505,21311082,197388,0.1967722,-0.08319092,0.42711234,0
21341494,21335112,197388,0.20140287,-0.08611548,0.42687637,0
21365498,21359165,197388,0.19948284,-0.07622266,0.43492234,0
21389525,21383144,197388,0.20121142,-0.07415655,0.4298805,0
21413508,21405257,197388,0.1990059,-0.08037937,0.42667913,0
21440491,21431516,197388,0.19636457,-0.076602146,0.42761236,0
21464504,21456047,197388,0.2029475,-0.08046927,0.43097627,0
21488494,21479920,197388,0.20100363,-0.08656575,0.42940176,0
21512501,21504593,197388,0.2045531,-0.08074339,0.42603368,0
21536492,21528391,197388,0.20028609,-0.07329393,0.4324119,0
21560510,21552627,197388,0.19798483,-0.079753876,0.42919424,0
21584498,21576216,197388,0.19746754,-0.073238485,0.42776924,0
21608491,21598689,197388,0.20315012,-0.0781704,0.42885235,0
21632510,21622641,197388,0.19711292,-0.07861853,0.42677134,0
21656494,21648119,197388,0.2031864,-0.07938221,0.43003708,0
21677505,21670375,197388,0.19893521,-0.08186105,0.4302929,0
21704504,21696806,197388,0.20053756,-0.07662299,0.42926666,0
21728498,21720224,197388,0.1978226,-0.075028315,0.43045282,0
21752501,21744368,197388,0.19779411,-0.07950833,0.42742133,0
21776504,21768865,197388,0.2016322,-0.07889409,0.43403345,0
21800497,21792624,197388,0.19848934,-0.080036834,0.42993385,0
21824499,21815094,197388,0.19731858,-0.07882136,0.42814738,0
21848503,21840928,197388,0.1991827,-0.0746948,0.43126315,0
21872510,21864831,197388,0.1985451,-0.07712008,0.42911512,0
21896514,21888865,197388,0.20191324,-0.07811667,0.42983437,0
21920491,21912800,197388,0.20311025,-0.08325062,0.4286881,0
21944504,21937075,197388,0.19874685,-0.07998556,0.42761242,0
21968497,21958828,197388,0.20165716,-0.07991266,0.4297808,0
21992498,21985105,197388,0.20036295,-0.079733476,0.43443853,0
22016503,22006979,197388,0.19810039,-0.08096875,0.42708325,0
22040491,22033067,197388,0.19981933,-0.08100693,0.4289366,0
22064505,22055136,197388,0.201034,-0.08012014,0.42980504,0
22088491,22081109,197388,0.19979917,-0.07561089,0.431035,0
22112498,22103208,197388,0.19874337,-0.08057419,0.43220085,0
22136497,22129150,197388,0.19915043,-0.07715407,0.4279861,0
22160491,22153099,197388,0.20057008,-0.08068148,0.42791772,0
22184498,22177106,197388,0.19634989,-0.07877467,0.43224812,0
22208490,22201069,197388,0.19795261,-0.07736409,0.42712706,0
22232517,22225095,197388,0.19826026,-0.08182874,0.42785263,0
22256491,22249101,197388,0.19812751,-0.083185665,0.42968038,0
22280504,22271176,197388,0.19603488,-0.08053308,0.43473774,0
22304502,22295181,197388,0.19833858,-0.07882112,0.43364638,0
22328495,22321161,197388,0.19684264,-0.08567785,0.43016872,0
22352510,22345041,197388,0.19997334,-0.08286151,0.42743063,0
22376491,22369130,197388,0.19363418,-0.078109965,0.43368638,0
22400502,22393205,197388,0.19783378,-0.08031455,0.42402136,0
22424498,22417208,197388,0.20164791,-0.08474718,0.4304453,0
22448504,22441324,197388,0.1991637,-0.079814605,0.43319428,0
22472511,22465279,197388,0.19952673,-0.07809219,0.43084803,0
22496494,22489359,197388,0.20181707,-0.08469681,0.43034822,0
22520494,22513569,197388,0.19912511,-0.0807394,0.42895085,0
22544498,22535701,197388,0.19999415,-0.08451629,0.43415833,0
22568511,22561674,197388,0.19792852,-0.08167524,0.43182892,0
22592501,22583770,197388,0.1997695,-0.08249019,0.426475,0
22616503,22610029,197388,0.19791026,-0.08214456,0.42801517,0
22640495,22634130,197388,0.20053828,-0.08001746,0.43079978,0
22664502,22658100,197388,0.20151703,-0.08142304,0.42694068,0
22688504,22682150,197388,0.2023333,-0.07896909,0.4283328,0
22712513,22706175,197388,0.19940993,-0.08089793,0.42939314,0
22736499,22728456,197388,0.19979337,-0.084106915,0.42684078,0
22760494,22754155,197388,0.19354469,-0.07767673,0.43320504,0
22784499,22778118,197388,0.19781926,-0.07676252,0.42435515,0
22808491,22802246,197388,0.20172784,-0.08010507,0.431629,0
22832501,22826150,197388,0.19586456,-0.081668705,0.43215483,0
22856491,22848243,197388,0.20011213,-0.084366046,0.43076092,0
22877512,22872405,197388,0.199109,-0.0815521,0.42831802,0
22904511,22898596,197388,0.19653666,-0.08753712,0.42817155,0
22928503,22922260,197388,0.19740014,-0.080808386,0.42923716,0
22952511,22946248,197388,0.20143141,-0.08280523,0.42623383,0
22976492,22968528,197388,0.1979355,-0.085840106,0.43046913,0
23003498,22994541,197388,0.19961637,-0.08306256,0.43414497,0
23027502,23016853,197388,0.1990797,-0.08407214,0.424976,0
23051511,23040937,197388,0.20726702,-0.08062968,0.4297256,0
23075491,23064967,197388,0.19643545,-0.085727654,0.43100834,0
23099502,23088881,197388,0.2002748,-0.07955429,0.42690426,0
23123494,23114925,197388,0.20392345,-0.08255845,0.4255259,0
23147499,23139041,197388,0.1937119,-0.08638379,0.42692107,0
23171499,23162975,197388,0.19580626,-0.089154705,0.43091246,0
23195503,23187123,197388,0.19276068,-0.09104179,0.4306178,0
23219518,23211109,197388,0.18340807,-0.09817964,0.43231505,0
23243494,23235175,197388,0.18067496,-0.09650394,0.4335883,0
23267501,23259348,197388,0.17890017,-0.10135696,0.43623924,0
23291488,23283176,197388,0.16757943,-0.09769171,0.4382897,0
23315504,23307380,197388,0.16435963,-0.1023913,0.4416514,0
23339503,23331380,197388,0.15369001,-0.106174596,0.44303557,0
23363503,23355178,197388,0.14328572,-0.100879654,0.4495685,0
23387508,23379361,197388,0.13926205,-0.108013585,0.44645447,0
23411491,23405113,197388,0.13136724,-0.103519954,0.450135,0
23435495,23425421,197388,0.1253746,-0.10666884,0.4477862,0
23459510,23451301,197388,0.11889745,-0.10604657,0.45672488,0
23483504,23475343,197388,0.105839714,-0.10433985,0.45235187,0
23507511,23499357,197388,0.103480466,-0.10435527,0.46377257,0
23531504,23523251,197388,0.08777364,-0.10452215,0.45841345,0
23555505,23547472,197388,0.08873476,-0.103573605,0.4616804,0
23579498,23571180,197388,0.08585494,-0.10366811,0.45994335,0
23603483,23595061,197388,0.075666964,-0.09795758,0.45864844,0
23627514,23619066,197388,0.0726383,-0.09977791,0.46197033,0
23651483,23643066,197388,0.06629225,-0.10355246,0.46383607,0
23675498,23667077,197388,0.058676552,-0.10044864,0.46693254,0
23699511,23691070,197388,0.059603073,-0.09415761,0.46595338,0
23723511,23715237,197388,0.05344496,-0.09296815,0.46890128,0
23747518,23737209,197388,0.04648783,-0.08892291,0.46957466,0
23771504,23763545,197388,0.04482358,-0.09063999,0.46997893,0
23795500,23785867,197388,0.037141647,-0.08531673,0.46936494,0
23819504,23809446,197388,0.03401288,-0.080646925,0.47305286,0
23843507,23835497,197388,0.032245837,-0.077254474,0.47424835,0
23867511,23859490,197388,0.025511298,-0.0775714,0.47549728,0
23891495,23883275,197388,0.021666322,-0.06968834,0.4794684,0
23915483,23905642,197388,0.022834677,-0.06755783,0.4771561,0
23939501,23931405,197388,0.01830747,-0.06832212,0.47562557,0
23963504,23953831,197388,0.011988433,-0.0623724,0.46962047,0
23987499,23979385,197388,0.00985832,-0.067660235,0.47777247,0
24011495,24003430,197388,0.012238384,-0.06342555,0.4775378,0
24035491,24027428,197388,0.011861872,-0.06049393,0.47490865,0
24059509,24053408,197388,0.0060351924,-0.060501613,0.4752056,0
24083495,24075863,197388,0.0041049845,-0.058535527,0.46857664,0
24107511,24101445,197388,0.006631751,-0.06338434,0.48112434,0
24131508,24123479,197388,0.0013102068,-0.05905498,0.47694975,0
24155504,24149818,197388,0.01137116,-0.06164445,0.47727194,0
24179501,24173065,197388,0.004425075,-0.05378548,0.47773284,0
24203504,24195404,197388,-0.0009171257,-0.06049729,0.47906306,0
24227508,24219174,197388,0.00023600576,-0.06358655,0.4768383,0
24251483,24243116,197388,-0.0011044572,-0.061259612,0.47970355,0
24275498,24265314,197388,0.005112428,-0.05838722,0.474553,0
24299502,24291412,197388,0.004560623,-0.055396616,0.47241563,0
24323508,24315018,197388,-0.00026600063,-0.05430293,0.4767252,0
24347510,24337416,197388,-0.0023900052,-0.0592177,0.47874022,0
24371491,24363309,197388,0.0006566043,-0.054844774,0.476435,0
24395510,24387080,197388,0.0021107579,-0.054793254,0.4802451,0
24419510,24409015,197388,-0.0043326626,-0.055442236,0.47228903,0
24443504,24432912,197388,-0.00876078,-0.053446386,0.47586024,0
24467499,24459391,197388,-0.0063062566,-0.052246172,0.47772217,0
24491488,24481001,197388,-0.007672066,-0.049914822,0.481691,0
24515504,24505248,197388,-0.013474645,-0.046977073,0.48166412,0
24539511,24531165,197388,-0.0065782424,-0.046700004,0.47752744,0
24563510,24557628,197388,-0.0055206995,-0.046579443,0.480197,0
24587490,24579191,197388,0.0012848626,-0.049441323,0.47813642,0
24611494,24603433,197388,-0.0062999483,-0.056236826,0.47264528,0
24635484,24625224,197388,-0.0058436194,-0.051350415,0.47984397,0
24659502,24651217,197388,-0.005302254,-0.05197615,0.4781289,0
24683491,24673447,197388,-0.0033732494,-0.058839705,0.4797204,0
24707501,24699208,197388,0.0003215862,-0.059928335,0.47526252,0
24731499,24723458,197388,-0.0053351754,-0.068598464,0.47946677,0
24755491,24747190,197388,-0.0006478782,-0.06937927,0.47650653,0
24779505,24773054,197388,-0.0028628684,-0.07479334,0.47314698,0
24803494,24795419,197388,-0.004706068,-0.079236306,0.4717961,0
24827490,24817179,197388,-0.006665263,-0.0875265,0.46955174,0
24854504,24845170,197388,-0.0083515905,-0.08681221,0.47097614,0
24875504,24867356,197388,-0.011815609,-0.087020874,0.475167,0
24899508,24891976,197388,-0.0128256325,-0.092069775,0.47061807,0
24923491,24916021,197388,-0.008472207,-0.09562834,0.46722186,0
24947505,24940376,197388,-0.019919481,-0.096644804,0.47349638,0
24971499,24965414,197388,-0.020143587,-0.105161786,0.46338528,0
24995512,24987999,197388,-0.027269183,-0.11158098,0.46620244,0
25019510,25013214,197388,-0.029294584,-0.107300945,0.47338027,0
25043491,25035532,197388,-0.03348765,-0.109629646,0.46695423,0
25067518,25059682,197388,-0.038965575,-0.11128387,0.46676832,0
25091488,25083437,197388,-0.041092865,-0.108700395,0.45888442,0
25115495,25107369,197388,-0.043386057,-0.117792055,0.46201062,0
25139512,25131175,197388,-0.049333833,-0.11404213,0.46508652,0
25163504,25155208,197388,-0.057854794,-0.12340368,0.4674061,0
25187511,25177627,197388,-0.05531585,-0.11450251,0.45993537,0
25211500,25202024,197388,-0.06363584,-0.12181057,0.46195266,0
25235503,25227293,197388,-0.06430552,-0.124364235,0.45824826,0
25259511,25251419,197388,-0.07361567,-0.12281099,0.46401447,0
25283496,25275465,197388,-0.07625097,-0.12514514,0.45542592,0
25307502,25299287,197388,-0.07904933,-0.12864122,0.45753634,0
25331495,25323739,197388,-0.08808574,-0.12888326,0.45642126,0
25355491,25348170,197388,-0.089305684,-0.12834886,0.4555161,0
25382515,25373394,197388,-0.091664955,-0.12726441,0.44796926,0
25403510,25395818,197388,-0.099326774,-0.13185251,0.44841132,0
25427506,25420023,197388,-0.10635455,-0.13507327,0.45078182,0
25451496,25445634,197388,-0.108874254,-0.13545306,0.44569033,0
25475504,25468610,197388,-0.11066361,-0.1316494,0.44526583,0
25499511,25493838,197388,-0.11969016,-0.13403891,0.4473983,0
25523491,25516630,197388,-0.11993116,-0.13604003,0.44243026,0
25547510,25541926,197388,-0.12163709,-0.13565032,0.44334048,0
25574491,25565208,197388,-0.1305536,-0.13829944,0.44403768,0
25598497,25589954,197388,-0.13866013,-0.13752529,0.44350103,0
25622501,25614532,197388,-0.14177188,-0.12899679,0.4407143,0
25646485,25637914,197388,-0.14719933,-0.13384289,0.43921217,0
25670497,25662699,197388,-0.15252745,-0.13496754,0.4373281,0
25694491,25686466,197388,-0.15547314,-0.13047552,0.4343118,0
25718499,25711113,197388,-0.16252777,-0.1319521,0.43161374,0
25742492,25734751,197388,-0.16849571,-0.1297146,0.43361783,0
25766486,25758784,197388,-0.17590846,-0.13584761,0.43158424,0
25790489,25783200,197388,-0.18044733,-0.12952827,0.42712867,0
25814491,25806728,197388,-0.1856978,-0.12783808,0.43006492,0
25838489,25830757,197388,-0.19034831,-0.1280213,0.42427555,0
25862505,25854691,197388,-0.2005406,-0.12295299,0.4171581,0
25886491,25879139,197388,-0.20148757,-0.12485625,0.42376223,0
25910497,25902727,197388,-0.20652714,-0.12554683,0.41802087,0
25934499,25924884,197388,-0.20882595,-0.11709431,0.41289696,0
25958488,25948903,197388,-0.22035906,-0.114075094,0.41103768,0
25982498,25974925,197388,-0.22403425,-0.11812769,0.40945533,0
26006492,25998778,197388,-0.23117302,-0.117334165,0.41405827,0
26030485,26023003,197388,-0.23378856,-0.11376935,0.40747517,0
26054506,26046791,197388,-0.24040309,-0.109140486,0.40491104,0
26078496,26070810,197388,-0.2448811,-0.10707151,0.39671654,0
26102504,26094791,197388,-0.25072795,-0.10248831,0.39726096,0
26126487,26118832,197388,-0.25170577,-0.09649971,0.39054558,0
26150478,26142886,197388,-0.2632202,-0.09686454,0.39162675,0
26174492,26165325,197388,-0.26540685,-0.08718565,0.38819873,0
26198488,26190773,197388,-0.2682554,-0.08368395,0.38687688,0
26222510,26214804,197388,-0.27254266,-0.07636906,0.3838422,0
26246497,26239046,197388,-0.2771775,-0.0728617,0.38275263,0
26270497,26262726,197388,-0.2869544,-0.07241398,0.38428378,0
26294491,26286827,197388,-0.28688735,-0.0703641,0.3881333,0
26318485,26310802,197388,-0.28318572,-0.060411558,0.3831104,0
26342504,26334747,197388,-0.28324118,-0.05265757,0.380685,0
26366488,26359079,197388,-0.28162873,-0.048635818,0.3812583,0
26390504,26382824,197388,-0.28431517,-0.045460604,0.3860907,0
26414503,26407172,197388,-0.2817771,-0.039010547,0.388401,0
26438487,26428996,197388,-0.27386057,-0.030576091,0.39141104,0
26462494,26454999,197388,-0.27942967,-0.022045463,0.3904252,0
26486491,26478910,197388,-0.27542305,-0.02080546,0.39245147,0
26510489,26503095,197388,-0.26934674,-0.015529575,0.3963306,0
26534494,26527040,197388,-0.26853436,-0.008088379,0.39647865,0
26558495,26551580,197388,-0.26707026,-0.00367457,0.3959105,0
26582503,26575257,197388,-0.26429498,0.001969849,0.40268135,0
26606489,26599900,197388,-0.26561993,0.005069131,0.39709955,0
26630490,26624035,197388,-0.26373097,0.009226669,0.40086067,0
26654503,26645846,197388,-0.25876278,0.014589619,0.40286592,0
26681557,26672198,197388,-0.2571888,0.015606439,0.40834564,0
26702503,26697416,197388,-0.2587841,0.013706196,0.40153134,0
26726499,26719890,197388,-0.25501359,0.01631422,0.40638947,0
26750490,26745482,197388,-0.25764394,0.0149019025,0.40530127,0
26774494,26768134,197388,-0.25222963,0.009704512,0.4122637,0
26798485,26793456,197388,-0.25346744,0.0106882285,0.40789208,0
26825511,26816242,197388,-0.25173056,0.0035368418,0.41099152,0
26849509,26841696,197388,-0.2534729,0.0018956839,0.40784073,0
26873517,26864622,197388,-0.24626327,-0.0011406678,0.41483843,0
26897517,26889798,197388,-0.24871966,-0.0035733702,0.40419188,0
26921509,26912786,197388,-0.2546618,-0.0018023658,0.4138444,0
26945510,26936777,197388,-0.2479461,-0.0037512332,0.41273367,0
26969508,26959069,197388,-0.24221794,-0.0073481416,0.413989,0
26993511,26985127,197388,-0.24285895,-0.00823682,0.41189265,0
27017505,27007606,197388,-0.24304362,-0.0067616575,0.41717994,0
27041517,27031789,197388,-0.24246734,-0.007758527,0.4095198,0
27065506,27058387,197388,-0.23437527,-0.0102286935,0.4165526,0
27089509,27081650,197388,-0.24161471,-0.009043399,0.4207254,0
27113511,27105650,197388,-0.24132368,-0.013448719,0.41626167,0
27137505,27130393,197388,-0.23462921,-0.012010768,0.4178521,0
27161501,27153691,197388,-0.23920873,-0.012403496,0.42059404,0
27185498,27178462,197388,-0.23310831,-0.0150270965,0.42095405,0
27209524,27201835,197388,-0.2361143,-0.010224157,0.41941875,0
27233502,27226363,197388,-0.23226151,-0.014800964,0.42403919,0
27254503,27247884,197388,-0.23467761,-0.010893445,0.4191246,0
27281510,27273778,197388,-0.22856767,-0.017820816,0.42122474,0
27305501,27295675,197388,-0.2230366,-0.013477582,0.42139974,0
27329518,27321866,197388,-0.22652367,-0.013472488,0.42419088,0
27353510,27343665,197388,-0.22715676,-0.01158379,0.42339307,0
27377514,27367648,197388,-0.22179745,-0.011565765,0.42167687,0
27401501,27394395,197388,-0.22601905,-0.01627628,0.423148,0
27425511,27417627,197388,-0.22365618,-0.01342729,0.42735314,0
27449507,27441931,197388,-0.22543451,-0.015270165,0.42615312,0
27473502,27466736,197388,-0.22404408,-0.012740788,0.42577094,0
27497505,27490558,197388,-0.21444735,-0.0147147495,0.43091723,0
27521498,27512644,197388,-0.21712747,-0.019000705,0.4243713,0
27545517,27538643,197388,-0.22249898,-0.011411924,0.4274489,0
27569516,27560671,197388,-0.21997766,-0.010167603,0.42900407,0
27593499,27587046,197388,-0.22012079,-0.012505941,0.4269477,0
27617510,27610809,197388,-0.22218065,-0.011686631,0.4281649,0
27641511,27634797,197388,-0.21699262,-0.013257555,0.42822927,0
27665505,27658983,197388,-0.21807286,-0.009295922,0.42947334,0
27689505,27682941,197388,-0.21808991,-0.01204511,0.4310286,0
27713505,27706900,197388,-0.22175494,-0.010610807,0.42898524,0
27737504,27731360,197388,-0.21922368,-0.009163771,0.42801887,0
27761510,27754811,197388,-0.2175763,-0.013107727,0.42753267,0
27785498,27779009,197388,-0.21643344,-0.012735961,0.43253666,0
27809512,27802830,197388,-0.21964589,-0.008850325,0.42253977,0
27833510,27826894,197388,-0.21980715,-0.008583952,0.42567474,0
27857519,27850987,197388,-0.21486054,-0.009194675,0.42321873,0
27881511,27874798,197388,-0.22076005,-0.009439727,0.42708707,0
27905505,27898979,197388,-0.21617395,-0.010128362,0.4311326,0
27929505,27922962,197388,-0.21456978,-0.01156472,0.42755932,0
27953501,27944966,197388,-0.21675137,-0.009700194,0.42686188,0
27977518,27970881,197388,-0.22187117,-0.009460863,0.4287771,0
28001498,27995051,197388,-0.21606183,-0.014834265,0.42979255,0
28025510,28016810,197388,-0.22184041,-0.009919823,0.42701626,0
28049524,28042795,197388,-0.21926141,-0.011311425,0.42456698,0
28073510,28064830,197388,-0.22311285,-0.013789427,0.42825228,0
28097509,28090813,197388,-0.21799642,-0.009790341,0.4306947,0
28121510,28114803,197388,-0.21753111,-0.012202022,0.43192774,0
28145506,28138994,197388,-0.22163862,-0.011893764,0.43023562,0
28169513,28162929,197388,-0.21804382,-0.010925825,0.42559388,0
28193499,28187064,197388,-0.22015843,-0.013374963,0.42749387,0
28217515,28210873,197388,-0.22311424,-0.008587245,0.42924988,0
28241501,28234962,197388,-0.21988852,-0.014309689,0.4254796,0
28265498,28258840,197388,-0.21842504,-0.012502659,0.42762238,0
28289518,28282792,197388,-0.22320472,-0.010515154,0.42791513,0
28313498,28307025,197388,-0.21652219,-0.012557704,0.42521858,0
28337517,28330904,197388,-0.21781507,-0.010511067,0.42523214,0
28361498,28353137,197388,-0.22058707,-0.008022126,0.42615587,0
28385509,28379139,197388,-0.21963328,-0.010557586,0.4304493,0
28409517,28403239,197388,-0.21900442,-0.011927787,0.42683238,0
28433511,28427227,197388,-0.21866935,-0.0057453793,0.42629048,0
28460503,28451637,197388,-0.22246072,-0.01152326,0.42759138,0
28484510,28473709,197388,-0.21961829,-0.0072432784,0.4253984,0
28508495,28499888,197388,-0.22340634,-0.014980353,0.42912862,0
28535491,28525661,197388,-0.22121923,-0.0056933984,0.42216408,0
28556503,28548192,197388,-0.21905422,-0.010574235,0.42651337,0
28580495,28572392,197388,-0.22224027,-0.0056134635,0.42513943,0
28604511,28597684,197388,-0.21948315,-0.0073227636,0.42297888,0
28628503,28618601,197388,-0.2192098,-0.011998795,0.42463213,0
28652510,28645759,197388,-0.22227144,-0.009121433,0.42317545,0
28676491,28666231,197388,-0.22067696,-0.009150667,0.4276421,0
28700510,28692392,197388,-0.22126502,-0.005414999,0.42266333,0
28724501,28717651,197388,-0.22205232,-0.00921321,0.42142338,0
28748491,28740372,197388,-0.2176353,-0.011392692,0.42593545,0
28772510,28765758,197388,-0.22249892,-0.011228048,0.42657095,0
28796503,28788142,197388,-0.21464735,-0.014190512,0.43003666,0
28820495,28813821,197388,-0.22251824,-0.01280657,0.4267766,0
28844502,28836184,197388,-0.22016153,-0.005963685,0.41936266,0
28868502,28861676,197388,-0.22285187,-0.0060040345,0.4291135,0
28892510,28884224,197388,-0.21941301,-0.010540115,0.42720312,0
28916494,28906473,197388,-0.21969423,-0.011215847,0.42916933,0
28940504,28932133,197388,-0.22506401,-0.0105661675,0.42460436,0
28964510,28958468,197388,-0.22070682,-0.0055153044,0.42438704,0
28988495,28978781,197388,-0.2278365,-0.0028628623,0.42338085,0
29015510,29005863,197388,-0.22418353,0.0026830186,0.42291632,0
29036509,29030442,197388,-0.23057452,0.0022922345,0.4193447,0
29060517,29053808,197388,-0.23854004,0.0055114524,0.4198707,0
29084511,29077832,197388,-0.23648393,0.013661543,0.41450566,0
29108491,29099819,197388,-0.24158779,0.018895058,0.41435772,0
29132504,29125656,197388,-0.2504091,0.026449896,0.40878004,0
29156495,29149873,197388,-0.24693716,0.04144764,0.409662,0
29183515,29174647,197388,-0.25823593,0.041079827,0.41034997,0
29204505,29197787,197388,-0.25769788,0.049029484,0.39762044,0
29228495,29221849,197388,-0.2665382,0.059110142,0.40068567,0
29255504,29246730,197388,-0.27034563,0.06180407,0.3886448,0
29276491,29269801,197388,-0.27394518,0.07552924,0.38202414,0
29300495,29291820,197388,-0.27741528,0.074015945,0.3861319,0
29327502,29318665,197388,-0.27894354,0.083547726,0.38173887,0
29348503,29342259,197388,-0.2822808,0.09438488,0.37929118,0
29372511,29364326,197388,-0.28254193,0.10160717,0.37797594,0
29399499,29390454,197388,-0.28227073,0.10452305,0.3731964,0
29423492,29414490,197388,-0.28372616,0.11824161,0.37352037,0
29444503,29436275,197388,-0.27851605,0.11984384,0.3780402,0
29471491,29463021,197388,-0.28475517,0.12913364,0.36368448,0
29495511,29487326,197388,-0.28045452,0.13384163,0.35944578,0
29519508,29510582,197388,-0.2827149,0.14383148,0.36339507,0
29543501,29534550,197388,-0.28251213,0.14705643,0.35826552,0
29567508,29559320,197388,-0.28187317,0.15820915,0.35603675,0
29588494,29582687,197388,-0.28337014,0.16383621,0.3507339,0
29615483,29607026,197388,-0.28347594,0.17158467,0.35183787,0
29639511,29629279,197388,-0.283202,0.17580043,0.3464128,0
29663508,29655024,197388,-0.27345312,0.18668583,0.3439232,0
29687497,29679048,197388,-0.27373862,0.18812037,0.3454361,0
29711494,29703396,197388,-0.2720413,0.19442576,0.33989644,0
29735495,29725080,197388,-0.2742678,0.2016092,0.33944327,0
29759511,29751316,197388,-0.26982543,0.20838627,0.33998328,0
29783491,29775134,197388,-0.2622147,0.20940655,0.33990097,0
29807499,29797048,197388,-0.26075545,0.2126358,0.34379387,0
29837511,29826512,197388,-0.25449008,0.2190938,0.3414635,0
29867506,29859066,197388,-0.25400478,0.22265685,0.33584374,0
29903491,29887620,197388,-0.24268284,0.23336434,0.34113973,0
29927510,29919374,197388,-0.23871052,0.24117088,0.34359092,0
29951496,29943033,197388,-0.23636201,0.24252667,0.34148854,0
29975498,29965155,197388,-0.2278508,0.25178364,0.3430273,0
29999499,29991127,197388,-0.22333562,0.25298727,0.33964553,0
30023511,30015412,197388,-0.21323694,0.25529346,0.34428173,0
30047490,30039058,197388,-0.21730103,0.26028076,0.3413266,0
30071504,30063314,197388,-0.20373589,0.26613122,0.33746153,0
30095505,30087255,197388,-0.20098396,0.27093259,0.34310138,0
30119511,30111669,197388,-0.19781095,0.27492028,0.34548298,0
30143496,30135453,197388,-0.19049868,0.27624026,0.33773583,0
30167510,30161896,197388,-0.19182673,0.28614274,0.34021187,0
30191495,30185479,197388,-0.184079,0.28909242,0.34176204,0
30215504,30206540,197388,-0.18029074,0.28815395,0.34288698,0
30239511,30233577,197388,-0.17033215,0.2944553,0.34488437,0
30263491,30256260,197388,-0.16641644,0.29600996,0.3407967,0
30287501,30281592,197388,-0.16259715,0.29838413,0.33961156,0
30311491,30303846,197388,-0.15576962,0.30465102,0.33869612,0
30335491,30329755,197388,-0.1506905,0.3102076,0.33889824,0
30359517,30352034,197388,-0.13964051,0.30731392,0.3340317,0
30383499,30377563,197388,-0.13520932,0.31141722,0.3369094,0
30407502,30400021,197388,-0.12833367,0.3110144,0.3348017,0
30431504,30425529,197388,-0.12184049,0.317848,0.3393371,0
30455491,30447623,197388,-0.11856438,0.32379547,0.33816248,0
30479511,30473575,197388,-0.11309871,0.3226996,0.33481103,0
30503495,30496014,197388,-0.105349064,0.32644063,0.33553022,0
30527518,30520135,197388,-0.09777027,0.3307438,0.3385599,0
30548510,30544183,197388,-0.096468806,0.33302224,0.34136415,0
30575504,30566897,197388,-0.08394316,0.33189994,0.3359322,0
30599499,30593584,197388,-0.077960655,0.33636758,0.33418766,0
30623491,30616120,197388,-0.073788986,0.33900365,0.3355012,0
30647499,30641681,197388,-0.066670194,0.33620125,0.33159164,0
30671491,30664107,197388,-0.06523664,0.34326053,0.3346149,0
30695506,30689641,197388,-0.05711189,0.33987477,0.33215332,0
30719510,30711980,197388,-0.04742506,0.34457785,0.33230147,0
30743504,30734107,197388,-0.039969467,0.34536314,0.33137065,0
30767501,30759896,197388,-0.031152885,0.3488202,0.32958883,0
30791488,30785624,197388,-0.029306266,0.34558433,0.33188722,0
30815504,30807944,197388,-0.014326809,0.34987208,0.32917625,0
30839499,30830098,197388,-0.006731033,0.3477329,0.33243036,0
30863505,30855973,197388,-0.0084079,0.34997013,0.33166873,0
30887501,30880192,197388,0.0025589978,0.34956336,0.32876384,0
30911494,30905553,197388,0.010687029,0.3467195,0.3279965,0
30935504,30926451,197388,0.017831054,0.3472237,0.32973433,0
30959499,30953337,197388,0.019266037,0.34517825,0.33554462,0
30983497,30975990,197388,0.024036035,0.34264615,0.32893693,0
31007499,31001416,197388,0.03464854,0.34014004,0.3344037,0
31031501,31023729,197388,0.03987173,0.341282,0.3350035,0
31055491,31048083,197388,0.052797228,0.33762208,0.33939928,0
31079511,31073576,197388,0.05548887,0.3330016,0.3436169,0
31103504,31096155,197388,0.061965678,0.3303281,0.34136504,0
31127515,31121669,197388,0.07019034,0.32677853,0.34190783,0
31151491,31144122,197388,0.076894,0.33004242,0.34413588,0
31175491,31169562,197388,0.08060293,0.31680214,0.34896874,0
31199505,31191989,197388,0.08323285,0.32015222,0.34611353,0
31223491,31216154,197388,0.09758815,0.31287956,0.3578162,0
31247499,31241703,197388,0.099465534,0.30592984,0.35692137,0
31271491,31264298,197388,0.1013498,0.30283773,0.35963845,0
31295502,31289736,197388,0.10987164,0.2978884,0.3564837,0
31319511,31312450,197388,0.11702837,0.28979295,0.36128744,0
31343491,31337941,197388,0.11533098,0.29045618,0.3597195,0
31367512,31360869,197388,0.12963504,0.27947974,0.36910927,0
31391488,31384987,197388,0.12563175,0.28387338,0.37521788,0
31415491,31407104,197388,0.13207313,0.2788189,0.37204427,0
31439512,31433083,197388,0.13762057,0.27134,0.37071943,0
31463496,31457112,197388,0.14030614,0.26075906,0.37458718,0
31490485,31482072,197388,0.14450467,0.25705236,0.38029194,0
31511495,31505383,197388,0.15123141,0.24963906,0.38240075,0
31535506,31527265,197388,0.149411,0.25340343,0.38517162,0
31562504,31553953,197388,0.15664817,0.23821685,0.390118,0
31586485,31577895,197388,0.15802525,0.23448125,0.39154404,0
31610491,31602523,197388,0.15985394,0.23028693,0.39159152,0
31634494,31626020,197388,0.16032584,0.22563666,0.39778668,0
31658501,31650450,197388,0.164666,0.21841681,0.39259303,0
31682510,31673823,197388,0.16654527,0.21171391,0.39871234,0
31706488,31696015,197388,0.16650069,0.20917192,0.39735144,0
31730485,31720079,197388,0.16987291,0.20616966,0.4064662,0
31754504,31746180,197388,0.16582263,0.19873673,0.40864754,0
31778497,31770158,197388,0.17641094,0.19377914,0.40702665,0
31802495,31794619,197388,0.18238863,0.19153482,0.40561414,0
31826488,31816161,197388,0.17979765,0.18609674,0.40291435,0
31850504,31842378,197388,0.17544517,0.18258917,0.40448123,0
31874491,31866612,197388,0.18983965,0.18177873,0.40059704,0
31898489,31890421,197388,0.19254652,0.18106404,0.402907,0
31922504,31914260,197388,0.1958181,0.17855014,0.4003198,0
31946485,31938693,197388,0.19504812,0.17512393,0.4037339,0
31970497,31962197,197388,0.2034804,0.1745207,0.39497203,0
31994497,31986172,197388,0.21088383,0.16897193,0.39602673,0
32018491,32010584,197388,0.2194741,0.16620412,0.39863527,0
32042503,32032163,197388,0.2210238,0.1631696,0.39704674,0
32066503,32058050,197388,0.22158477,0.15858856,0.3928722,0
32090485,32082564,197388,0.2252148,0.15402569,0.39722335,0
32114496,32106084,197388,0.22387694,0.15235528,0.39689004,0
32138488,32130082,197388,0.22749865,0.15072411,0.39638355,0
32162494,32154501,197388,0.23000003,0.13499184,0.39798814,0
32186504,32178051,197388,0.23255253,0.13155895,0.40358907,0
32210492,32202646,197388,0.23417154,0.12398666,0.40071565,0
32234491,32226171,197388,0.22717454,0.12407607,0.40732256,0
32258485,32250745,197388,0.22778478,0.121356025,0.40903008,0
32282504,32273184,197388,0.22690941,0.106368974,0.40733132,0
32306488,32296158,197388,0.22935405,0.110174194,0.410773,0
32330497,32322179,197388,0.22492783,0.1005695,0.41009986,0
32354510,32346685,197388,0.22347921,0.092953,0.41376334,0
32378488,32370049,197388,0.2264493,0.09465602,0.41056234,0
32402491,32394533,197388,0.22670989,0.08747261,0.4140444,0
32426497,32418115,197388,0.22851145,0.08536544,0.41571432,0
32450488,32442096,197388,0.22681518,0.074659556,0.41305047,0
32474496,32466614,197388,0.22055475,0.07308023,0.4184892,0
32498489,32490214,197388,0.21709977,0.07041097,0.41712618,0
32522511,32514370,197388,0.22150996,0.056637704,0.42341048,0
32546485,32536886,197388,0.22042009,0.05963351,0.42416883,0
32570497,32562878,197388,0.22074774,0.049841017,0.42361143,0
32594499,32587450,197388,0.21721357,0.04780475,0.42557418,0
32618485,32611168,197388,0.22299677,0.038919464,0.42793298,0
32642494,32635153,197388,0.22112837,0.040801823,0.42183548,0
32666496,32657370,197388,0.22478265,0.03394166,0.4207607,0
32690508,32681267,197388,0.22211888,0.034439426,0.42441118,0
32714504,32707231,197388,0.22366725,0.030899923,0.42663112,0
32738478,32731209,197388,0.22368981,0.021101221,0.4250635,0
32762488,32755197,197388,0.2217793,0.020187702,0.42567688,0
32786497,32779234,197388,0.22615667,0.018078998,0.4166615,0
32810489,32801233,197388,0.22604266,0.0149258,0.4198537,0
32834511,32827122,197388,0.22262643,0.012287784,0.4258992,0
32858504,32851345,197388,0.22390267,-0.0004637048,0.42052102,0
32882491,32875668,197388,0.228378,0.00018190418,0.4250748,0
32906493,32899348,197388,0.22515166,-0.002960086,0.42025942,0
32930488,32923641,197388,0.22889549,-0.005383248,0.4240588,0
32954494,32949289,197388,0.23062645,-0.0023081335,0.4274708,0
32981513,32971994,197388,0.22740379,-0.0063060205,0.4249829,0
33002503,32997439,197388,0.2286682,-0.0018421775,0.42468572,0
33026506,33020172,197388,0.22759551,-0.0030746174,0.4259446,0
33050488,33045527,197388,0.22656882,-0.001955748,0.42844018,0
33074503,33068224,197388,0.22325331,-0.0028261875,0.4282876,0
33098487,33093527,197388,0.22671077,-0.003038636,0.4227044,0
33122491,33116429,197388,0.22556256,-0.0041289716,0.4291469,0
33146488,33141465,197388,0.22539768,-0.00061455317,0.42358273,0
33170488,33164039,197388,0.22696796,-0.0014386801,0.42048764,0
33194499,33189528,197388,0.22948457,-2.2844528e-05,0.42852646,0
33218491,33212134,197388,0.2249821,0.0025434264,0.42647052,0
33239511,33235609,197388,0.22487468,0.0019943384,0.42856035,0
33266497,33259671,197388,0.22320658,0.006059224,0.42411977,0
33290497,33285537,197388,0.22064915,0.0016340148,0.42343074,0
33314504,33308223,197388,0.2221933,0.00811886,0.423167,0
33341511,33333753,197388,0.2233907,0.0037056273,0.42248452,0
33362504,33356460,197388,0.21823213,0.0030751429,0.42601472,0
33386496,33381569,197388,0.2240865,0.0069058496,0.42533964,0
33413514,33404544,197388,0.22048107,0.007291357,0.42377535,0
33434491,33429548,197388,0.21930286,0.012217312,0.4219805,0
33458500,33452263,197388,0.22015725,0.012800736,0.4254105,0
33482494,33477515,197388,0.21936965,0.009237584,0.4208182,0
33506497,33499849,197388,0.21762672,0.0098835975,0.42726856,0
33530504,33525499,197388,0.22335328,0.012914916,0.42454863,0
33554498,33548128,197388,0.21905002,0.005939028,0.42884058,0
33578497,33573503,197388,0.22107348,0.017965507,0.42604598,0
33602504,33596222,197388,0.22021718,0.009941535,0.42795032,0
33626487,33621494,197388,0.22121501,0.009543851,0.42867857,0
33650492,33644268,197388,0.21284872,0.012884868,0.42795983,0
33674503,33669499,197388,0.21692699,0.015931744,0.42858025,0
33701511,33692403,197388,0.22082394,0.011955893,0.4297099,0
33725510,33718855,197388,0.22116554,0.010336281,0.42659426,0
33749507,33742642,197388,0.21711853,0.013473373,0.42998362,0
33773511,33766421,197388,0.21913728,0.016832275,0.42525315,0
33797508,33790164,197388,0.22114915,0.013850581,0.42570192,0
33821499,33812274,197388,0.22191168,0.012863444,0.42794895,0
33845508,33838175,197388,0.2162019,0.013886524,0.4333594,0
33869508,33862758,197388,0.21885233,0.01298709,0.42914537,0
33893514,33884454,197388,0.2142324,0.01829258,0.42880952,0
33917518,33910346,197388,0.2194703,0.011504728,0.42871767,0
33941508,33934939,197388,0.21897392,0.013031751,0.4271688,0
33965502,33958760,197388,0.21809024,0.013903863,0.4316427,0
33989518,33982681,197388,0.21699783,0.018845674,0.42739052,0
34013517,34004491,197388,0.22003642,0.014162501,0.42950764,0
34037507,34030195,197388,0.21258202,0.009710964,0.42441022,0
34061502,34054224,197388,0.21836524,0.0129474355,0.43131852,0
34085511,34078517,197388,0.21157718,0.010566909,0.4237545,0
34109521,34100530,197388,0.21576151,0.014052752,0.43216327,0
34133503,34127182,197388,0.21639487,0.012341119,0.42840788,0
34157515,34150502,197388,0.21048486,0.010828143,0.42737454,0
34181517,34174161,197388,0.21145925,0.01620038,0.43621987,0
34205498,34198698,197388,0.21281514,0.00839239,0.42992157,0
34229509,34222049,197388,0.21740678,0.014961873,0.43268222,0
34253505,34246209,197388,0.2162852,0.0135298595,0.4324255,0
34277508,34270624,197388,0.21308255,0.008513894,0.4304263,0
34301502,34294119,197388,0.21087906,0.014660726,0.42864245,0
34325510,34316112,197388,0.21370776,0.010611768,0.43361777,0
34349519,34342465,197388,0.21155198,0.011536991,0.42813405,0
34373501,34365893,197388,0.21419454,0.008535879,0.4311322,0
34397505,34390492,197388,0.21596426,0.0138566755,0.4297443,0
34421511,34412129,197388,0.21054576,0.00817111,0.42901045,0
34445501,34438998,197388,0.21379825,0.015572825,0.42809537,0
34469517,34462213,197388,0.21540472,0.010950567,0.4311301,0
34493511,34486156,197388,0.2150566,0.010217579,0.43063796,0
34517515,34511027,197388,0.21193501,0.012889323,0.42885277,0
34541494,34532909,197388,0.21160275,0.013427466,0.43017387,0
34565502,34556978,197388,0.21323013,0.012664823,0.42948025,0
34589508,34583072,197388,0.21354797,0.008312545,0.4304242,0
34613503,34607184,197388,0.21559396,0.009682502,0.4279505,0
34637520,34631299,197388,0.21295005,0.011170749,0.42928848,0
34664510,34655839,197388,0.21319762,0.011362047,0.4295643,0
34688503,34679637,197388,0.21845023,0.013549574,0.43450993,0
34715504,34705781,197388,0.21052401,0.011863912,0.43237144,0
34736501,34727556,197388,0.20868954,0.0120437555,0.42961773,0
34760494,34752258,197388,0.20976345,0.005239947,0.43043005,0
34787511,34777313,197388,0.21172833,0.006735846,0.43250018,0
34817517,34804327,197388,0.2115722,0.013354248,0.4275552,0
34838488,34833199,197388,0.21362446,0.013773287,0.428167,0
34868502,34859566,197388,0.21296367,0.01203744,0.4300366,0
34889516,34883160,197388,0.22168988,0.009222768,0.42684993,0
34910485,34905208,197388,0.22794762,0.00825396,0.4245422,0
34937522,34931145,197388,0.22750282,0.014562439,0.4226858,0
34958498,34953092,197388,0.23368707,0.0084478455,0.42158467,0
34985519,34978989,197388,0.24076459,0.010517522,0.41436017,0
35009524,35003026,197388,0.24388069,0.008071596,0.41854632,0
35033512,35026901,197388,0.24380167,0.016641967,0.41357255,0
35057521,35050898,197388,0.2467793,0.0059260046,0.41019088,0
35078497,35072893,197388,0.24625133,0.010426082,0.40814313,0
35105516,35098925,197388,0.2564704,0.009925115,0.4114033,0
35129521,35122857,197388,0.2551086,0.008008265,0.4062423,0
35153509,35147099,197388,0.2549704,0.0113234185,0.40686226,0
35177512,35170911,197388,0.24918255,0.007778064,0.40982696,0
35201518,35194831,197388,0.25225815,0.00959973,0.40861732,0
35222499,35217120,197388,0.2507837,0.014931858,0.41153085,0
35249524,35242917,197388,0.24691948,0.018445104,0.41445124,0
35273534,35267033,197388,0.2440171,0.013232086,0.41647857,0
35294506,35289220,197388,0.23436452,0.019677173,0.41678232,0
35321518,35315031,197388,0.23081332,0.01621745,0.4224705,0
35345525,35339078,197388,0.22269237,0.01784404,0.42041147,0
35369517,35363123,197388,0.2187559,0.01182159,0.4296576,0
35390497,35385157,197388,0.21137835,0.016779533,0.4228238,0
35417533,35410952,197388,0.2071585,0.011984048,0.437428,0
35441509,35434800,197388,0.19764622,0.01517825,0.4367548,0
35465517,35458829,197388,0.19699988,0.009192727,0.43915433,0
35489499,35482805,197388,0.18742396,0.0058973944,0.44520944,0
35513506,35507052,197388,0.17654137,0.010759959,0.44223243,0
35537515,35531189,197388,0.1792382,0.0064657275,0.44471103,0
35561515,35555250,197388,0.17703879,0.007953517,0.45428562,0
35585518,35579328,197388,0.17694214,0.0048592384,0.45141202,0
35612526,35603887,197388,0.17161518,0.0076604686,0.45101,0
35636502,35627818,197388,0.17044714,0.007056281,0.44886565,0
35660498,35653574,197388,0.1749298,-0.00052448874,0.44461718,0
35684519,35675505,197388,0.1770013,0.0022751247,0.4509198,0
35720503,35705742,197388,0.17937294,0.0002732081,0.4447845,0
35747501,35737460,197388,0.1805644,0.004480195,0.44547075,0
35768491,35760117,197388,0.1816651,-0.0019119575,0.4439566,0
35792508,35784005,197388,0.18484741,0.002613861,0.44525838,0
35816502,35808547,197388,0.18838271,0.002004968,0.4455166,0
35840500,35831270,197388,0.18587008,-0.0012023351,0.44059026,0
35864504,35857514,197388,0.19180655,0.0018316989,0.44149536,0
35888504,35880232,197388,0.19103408,0.0043115504,0.43654263,0
35912511,35905615,197388,0.19085869,0.009292448,0.44308645,0
35936498,35927848,197388,0.18304771,0.010628557,0.4452759,0
35960494,35952190,197388,0.18492407,0.016706096,0.44618368,0
35984502,35977517,197388,0.17598026,0.019401139,0.44654632,0
36008502,36000274,197388,0.17461032,0.02342141,0.44590127,0
36029524,36023283,197388,0.17161113,0.031152878,0.44859898,0
36056495,36045914,197388,0.16905992,0.03515052,0.4426149,0
36095528,36077768,197388,0.16146347,0.042996913,0.45071614,0
36116511,36108350,197388,0.15649357,0.050618634,0.44911322,0
36143499,36134274,197388,0.15397547,0.05856047,0.45230266,0
36164522,36156601,197388,0.15221626,0.06956713,0.4534062,0
36188505,36180668,197388,0.14787519,0.070446536,0.45240408,0
36212517,36205103,197388,0.14893185,0.08723305,0.44994473,0
36236510,36229229,197388,0.14138561,0.09115505,0.44900286,0
36260508,36253688,197388,0.14407706,0.1004481,0.45162824,0
36287516,36278599,197388,0.1423882,0.1076147,0.44889724,0
36308502,36301554,197388,0.14459318,0.116579846,0.44579655,0
36332518,36325836,197388,0.14854214,0.11849591,0.44485426,0
36356514,36349817,197388,0.14841035,0.114993975,0.4420734,0
36380491,36373701,197388,0.15764871,0.12843284,0.43860477,0
36404521,36398790,197388,0.15394956,0.12670627,0.43547565,0
36428527,36422119,197388,0.16390571,0.13191915,0.43295878,0
36452509,36446907,197388,0.16369234,0.13909736,0.43305248,0
36473498,36468156,197388,0.17000943,0.13784637,0.42898583,0
36500520,36494589,197388,0.18185216,0.14270519,0.4303704,0
36527518,36519226,197388,0.1726932,0.1438467,0.42230076,0
36563483,36547704,197388,0.17812535,0.15118739,0.41650328,0
36587506,36579069,197388,0.18590021,0.15849093,0.41216302,0
36611483,36603057,197388,0.1866731,0.16294485,0.41601282,0
36635495,36627044,197388,0.18330687,0.16226932,0.41420275,0
36659512,36649016,197388,0.18306051,0.17149112,0.4110533,0
36683504,36673450,197388,0.18456465,0.16429327,0.4090364,0
36707501,36699426,197388,0.18050867,0.1733185,0.41061866,0
36731491,36723084,197388,0.18704757,0.1761305,0.40806445,0
36755504,36747533,197388,0.18822321,0.17373507,0.40906924,0
36779501,36769804,197388,0.18455778,0.17797382,0.4091019,0
36803494,36797490,197388,0.1812444,0.18361795,0.405823,0
36827517,36820125,197388,0.17665103,0.18034293,0.40367293,0
36851495,36844049,197388,0.17500368,0.18225601,0.40836766,0
36875491,36867983,197388,0.17193185,0.19316801,0.40563214,0
36899510,36892051,197388,0.1702992,0.19442421,0.40455112,0
36923504,36917602,197388,0.17125037,0.19212545,0.4091915,0
36947511,36940313,197388,0.16653512,0.19836864,0.40886885,0
36971495,36965642,197388,0.15992247,0.20294178,0.4074961,0
36995518,36988182,197388,0.15200624,0.20378296,0.4041077,0
37019511,37012533,197388,0.14271572,0.20127623,0.40510446,0
37043496,37037906,197388,0.13856915,0.21233726,0.40656263,0
37067503,37060557,197388,0.12778561,0.21399729,0.40713128,0
37091488,37084645,197388,0.12428756,0.21475077,0.40847164,0
37115507,37108733,197388,0.11355039,0.21554779,0.4140514,0
37139501,37132893,197388,0.10967448,0.22151789,0.4133458,0
37163502,37157970,197388,0.10369675,0.2262092,0.40826425,0
37187502,37181061,197388,0.09713045,0.2307997,0.40924168,0
37211504,37206054,197388,0.09838517,0.23104028,0.41005355,0
37235495,37229337,197388,0.090053484,0.23226003,0.4083904,0
37259503,37253112,197388,0.087424636,0.2292848,0.4101562,0
37283495,37278153,197388,0.08408089,0.23266709,0.4105761,0
37307499,37301198,197388,0.08372186,0.23491098,0.4160728,0
37334495,37326468,197388,0.0783658,0.23281577,0.4083935,0
37358497,37349844,197388,0.07524853,0.23662247,0.41610765,0
37382495,37374002,197388,0.07456319,0.23850372,0.41399258,0
37406487,37398620,197388,0.07866347,0.23539348,0.40793544,0
37427510,37421458,197388,0.074851215,0.22919789,0.41620496,0
37451498,37445263,197388,0.063844055,0.23317403,0.41783053,0
37478494,37470057,197388,0.06893117,0.22618835,0.41937983,0
37499517,37493028,197388,0.06967841,0.22930238,0.41557276,0
37523494,37514797,197388,0.06708823,0.23182285,0.41718405,0
37547502,37540626,197388,0.065242544,0.22799358,0.41892052,0
37571499,37562602,197388,0.05925043,0.2264587,0.41844338,0
37595511,37589950,197388,0.0640243,0.22328994,0.41796476,0
37619511,37612216,197388,0.060712308,0.22310784,0.41590422,0
37643494,37637797,197388,0.059070516,0.22738093,0.42300588,0
37667517,37660462,197388,0.05367527,0.2239096,0.420789,0
37691488,37685876,197388,0.054081928,0.22404215,0.4164549,0
37715504,37708701,197388,0.046774708,0.22099355,0.42407027,0
37739511,37733997,197388,0.04438114,0.22402014,0.42297998,0
37763491,37756666,197388,0.04663898,0.2216441,0.42294616,0
37787505,37781887,197388,0.04008676,0.22237542,0.4235394,0
37811494,37804638,197388,0.03723821,0.22292484,0.42885834,0
37835502,37829943,197388,0.03444842,0.22092108,0.42542246,0
37859501,37852901,197388,0.02938049,0.22376658,0.42735434,0
37883495,37877915,197388,0.028448533,0.22317424,0.42646876,0
37907501,37900842,197388,0.021048259,0.22199145,0.42785233,0
37931494,37924587,197388,0.028077869,0.21713461,0.42812425,0
37955498,37950026,197388,0.019586984,0.21633112,0.42310864,0
37979502,37972636,197388,0.017790787,0.21602118,0.42663336,0
38003507,37996671,197388,0.0076384116,0.2198739,0.4296761,0
38027501,38020724,197388,0.009603027,0.21927956,0.42284763,0
38051496,38044602,197388,0.0005964873,0.21920225,0.42901933,0
38075494,38069820,197388,0.0021218113,0.21053448,0.42657623,0
38099501,38092848,197388,-0.0020853966,0.21625057,0.4299954,0
38123495,38118117,197388,-0.0035752873,0.22180778,0.4302314,0
38147501,38138914,197388,-0.012827944,0.21997091,0.42434072,0
38174491,38165810,197388,-0.019983634,0.2154237,0.42977887,0
38198492,38190491,197388,-0.021915998,0.21568076,0.4267934,0
38222499,38212030,197388,-0.023593068,0.21364455,0.43088248,0
38246497,38237882,197388,-0.024565838,0.21414328,0.42765272,0
38270485,38262647,197388,-0.02984709,0.2167068,0.4291093,0
38294498,38286036,197388,-0.035489734,0.21435985,0.42925745,0
38318500,38311084,197388,-0.038565792,0.2172448,0.42609498,0
38342489,38333377,197388,-0.046137396,0.21753454,0.42523962,0
38366485,38358912,197388,-0.049925007,0.2164554,0.42868263,0
38390497,38383215,197388,-0.04669615,0.21521097,0.42794108,0
38414503,38407093,197388,-0.05586288,0.21206255,0.42271233,0
38438491,38431120,197388,-0.056640737,0.21518204,0.42541873,0
38462492,38454931,197388,-0.05903898,0.21684647,0.4340914,0
38486498,38478831,197388,-0.0658682,0.21630086,0.4310336,0
38510478,38502777,197388,-0.06946417,0.21066034,0.4254673,0
38534494,38527054,197388,-0.07358733,0.21375294,0.42853814,0
38558485,38550839,197388,-0.07283957,0.21578494,0.42448926,0
38582491,38574803,197388,-0.08037743,0.21337831,0.42517796,0
38606492,38599085,197388,-0.08870372,0.21258563,0.4213451,0
38630497,38622797,197388,-0.08749948,0.21137786,0.4173115,0
38654499,38644949,197388,-0.08732186,0.21063355,0.42341852,0
38678497,38671374,197388,-0.09126125,0.20823595,0.42407846,0
38702499,38694055,197388,-0.08991611,0.20904368,0.4209716,0
38729509,38720404,197388,-0.08754612,0.21015117,0.4260906,0
38753514,38744465,197388,-0.08137791,0.20746799,0.42386645,0
38774502,38768231,197388,-0.08473242,0.21344972,0.42428088,0
38798485,38793635,197388,-0.08859098,0.20980792,0.42287758,0
38825502,38816488,197388,-0.07970489,0.20779264,0.42479682,0
38849505,38841842,197388,-0.076014474,0.21305573,0.4257022,0
38879518,38866888,197388,-0.07068734,0.20983237,0.42541873,0
38909525,38900884,197388,-0.07175732,0.21773435,0.42857465,0
38933518,38924761,197388,-0.07299502,0.20802668,0.4280692,0
38957512,38949828,197388,-0.06818141,0.21013059,0.42157125,0
38981527,38972745,197388,-0.06080223,0.2075474,0.4207018,0
39005508,38996810,197388,-0.058988176,0.20872277,0.42998484,0
39029515,39020776,197388,-0.06191175,0.20896643,0.43045092,0
39065510,39050212,197388,-0.062079124,0.2086001,0.426812,0
39089521,39080941,197388,-0.060230844,0.20735592,0.4283557,0
39113511,39104973,197388,-0.06303192,0.21066797,0.432271,0
39137512,39129085,197388,-0.056366693,0.20613012,0.4266826,0
39161498,39152221,197388,-0.055592947,0.21294135,0.4250372,0
39185510,39177024,197388,-0.061338753,0.21052949,0.43233562,0
39209505,39201826,197388,-0.06031407,0.20742528,0.42652458,0
39233502,39224761,197388,-0.055899926,0.21017374,0.42899087,0
39257505,39248768,197388,-0.05809223,0.20960328,0.4273696,0
39281505,39272708,197388,-0.05960239,0.2133531,0.42958528,0
