timestamp,gyro_rad[0],gyro_rad[1],gyro_rad[2],gyro_integral_dt,accelerometer_timestamp_relative,accelerometer_m_s2[0],accelerometer_m_s2[1],accelerometer_m_s2[2],accelerometer_integral_dt,accelerometer_clipping
15168302,0.0023252945,0.0006847651,-0.00018873457,4338,0,0.011836449,-0.035287887,-9.80076,4338,0
15172183,0.0025218595,0.0023218563,-0.00056894607,3881,0,0.008262831,-0.0060826093,-9.777782,3881,0
15175850,0.0015036914,0.0014730884,-0.0012331832,3667,0,0.008147315,0.0015661774,-9.78092,3667,0
15180358,-0.0013563515,-0.0019635493,-0.0008980752,4508,0,0.028387023,-0.028178127,-9.78405,4508,0
15251215,0.0005253964,-0.0030637092,0.002747136,189,0,0.030895343,0.000947312,-9.798773,189,0
15254241,9.427707e-05,3.9417064e-05,-0.0005085784,3026,0,0.0028982263,-0.018984245,-9.804204,3026,0
15255024,0.0027558655,0.0026681216,0.00414285,783,0,0.022101937,-0.036915276,-9.744165,783,0
15255163,0.0035321584,0.0038499336,0.0018250119,139,0,0.015344183,-0.049510345,-9.779071,139,0
15255303,0.0018193008,0.004618343,0.00051782577,140,0,-0.017919963,-0.051782243,-9.796829,140,0
15255528,0.0015705458,0.0047097243,0.001199212,225,0,-0.017749984,-0.011467349,-9.779839,225,0
15255662,0.0010151236,-0.0016704594,-0.0018455698,134,0,-0.025352411,-0.008955726,-9.8206835,134,0
15256342,0.0020879759,-0.0048177848,-0.0013621952,680,0,-0.014373838,-0.009075262,-9.847252,680,0
15260345,0.000916647,0.0023129508,-1.6750416e-06,4003,0,0.016602937,0.0009073381,-9.830324,4003,0
15264337,-0.0007064765,0.0038578461,-0.0020536582,3992,0,-0.013714977,-0.044290602,-9.798965,3992,0
15268330,0.0005475332,0.00018080586,-0.003767771,3993,0,-0.028619077,-0.0488696,-9.78727,3993,0
15272287,0.0015539657,0.00014144588,-0.003066488,3957,0,0.012307553,-0.054007262,-9.821056,3957,0
15276547,0.0013832118,4.5383138e-05,0.0010351066,4260,0,0.011088318,-0.06053303,-9.804709,4260,0
15625655,0.00061584084,0.0022020498,-0.0010630478,3933,0,0.0036095416,-0.029688485,-9.77564,3933,0
15630595,0.00041340737,-0.0016941563,0.00037579873,4940,0,0.0245586,-0.028293539,-9.783286,4940,0
15633681,0.0008039845,-0.0020527628,7.1647206e-05,3086,0,0.035413265,-0.022211099,-9.777527,3086,0
15637682,0.00086500973,0.0010559941,-0.0022432595,4001,0,0.019355787,-0.024617074,-9.7902,4001,0
15641342,-0.0018295175,0.0009703298,6.0478997e-05,3660,0,-0.024337107,-0.042378467,-9.78175,3660,0
15645274,-0.0035162326,0.0013415351,-0.0007801409,3932,0,-0.004956941,-0.03419923,-9.784279,3932,0
15649602,-0.0010438373,0.0011578375,-0.005170606,4328,0,0.041909844,-0.01438922,-9.800119,4328,0
15654578,0.0002099807,-0.000998251,-0.0055461084,4976,0,0.028150478,-0.01996811,-9.79322,4976,0
15657641,-0.0020710137,-0.0003557929,-0.002600897,3063,0,0.00318315,-0.031511553,-9.7964325,3063,0
15661312,-0.0051677856,-7.9693295e-05,0.0017888927,3671,0,-0.0022154034,-0.018786553,-9.815239,3671,0
15665274,-0.0035028392,0.00042797727,0.0019678655,3962,0,0.0019031231,-0.03257657,-9.8235445,3962,0
15669360,-0.00038099213,0.00065922615,0.00093276356,4086,0,-1.39014155e-05,-0.030253075,-9.818571,4086,0
15673282,0.00016982105,-0.0017941823,-0.00038931618,3922,0,0.010593116,-0.0056861923,-9.776943,3922,0
15677323,-0.00064773235,-0.00085638376,-0.0018889914,4041,0,0.04498665,-0.02929787,-9.753141,4041,0
15681277,3.987373e-05,-7.0311544e-05,0.00035672824,3954,0,0.029910197,-0.048480928,-9.80361,3954,0
15685259,0.0010065268,-0.0007780674,8.322226e-05,3982,0,-0.009320794,-0.017859768,-9.820455,3982,0
15689260,-0.0005780699,0.0007460802,0.0008105454,4001,0,-0.00074803794,-0.0043857684,-9.780756,4001,0
15693238,0.00045292737,-0.0012418469,-0.00042921872,3978,0,0.020206003,-0.047936637,-9.771099,3978,0
15698251,-0.0004694514,0.0017168355,0.00069246406,5013,0,0.040961713,-0.03612615,-9.792461,5013,0
15702072,-0.0019512778,0.005049046,0.0050077434,3821,0,0.0507977,-0.019737368,-9.812547,3821,0
15706503,-0.0012949866,0.0055963215,0.006771058,4431,0,0.08295126,-0.038292293,-9.830202,4431,0
15709950,-0.0023406541,0.0052696923,0.0047076135,3447,0,0.046075992,-0.01635507,-9.82551,3447,0
15713331,-0.0039572595,0.0029249103,-0.0037457529,3381,0,-0.013881821,0.0052853553,-9.8067,3381,0
15717262,-0.0015245806,0.0014560051,-0.005839454,3931,0,0.009178938,0.003606692,-9.814541,3931,0
15721302,0.0020213644,0.0002139759,-0.00058823393,4040,0,0.061573073,0.008347718,-9.829218,4040,0
15725293,0.0020095848,0.0008811286,0.0007709513,3991,0,0.07112295,0.022798464,-9.823176,3991,0
15729773,0.0011859051,-0.0019901495,0.00020727968,4480,0,0.016429245,0.016114263,-9.78116,4480,0
15733308,0.0009034317,-0.00046694124,-0.00015989976,3535,0,-0.01446066,-0.009320929,-9.750148,3535,0
15737300,0.00030823296,0.000594655,0.00051615963,3992,0,-0.009959137,-0.036938846,-9.757383,3992,0
15741338,-0.0020481704,-0.0026939497,-0.001365451,4038,0,0.014524232,-0.023686543,-9.78735,4038,0
15745621,-0.004998686,-0.0006475736,-0.005881796,4283,0,0.019443817,-0.025020855,-9.804224,4283,0
15749837,-0.0025635262,-0.0028347282,-0.0039173965,4216,0,-0.003874381,-0.031013746,-9.7825775,4216,0
15754590,0.0023152304,-0.0034311628,0.0014005746,4753,0,0.007810484,-0.0029829699,-9.775742,4753,0
15757652,-6.080191e-05,-0.0009470421,0.00025395976,3062,0,0.0087157115,-0.031299092,-9.797798,3062,0
15762567,-0.0011013683,0.0016752012,0.0005684269,4915,0,0.00095090177,-0.03322759,-9.774278,4915,0
15765363,-0.0007719534,0.0010782118,0.0023791513,2796,0,0.008091826,-0.014900084,-9.757492,2796,0
15769594,-0.0030340496,0.00063140935,-0.00047628512,4231,0,0.017447408,-0.018406397,-9.77644,4231,0
15774656,-0.0014722246,0.0021427919,-0.0027381233,5062,0,0.030875424,0.015420348,-9.789873,5062,0
15777287,-0.004325879,-0.00020772322,0.00022156823,2631,0,0.030929303,0.020377537,-9.79258,2631,0
15781763,-0.0027330404,0.00048058355,0.0020530524,4476,0,0.059754986,-0.0009999352,-9.7685585,4476,0
15786586,0.0011991429,0.0036016186,0.0014389314,4823,0,0.040085547,-0.01866518,-9.799916,4823,0
15789748,0.00014750993,0.0037959416,0.0032550797,3162,0,0.00017522297,0.0014446173,-9.81161,3162,0
15793628,0.00046408072,-0.0017954566,0.0023198214,3880,0,0.033998407,-0.023248564,-9.788632,3880,0
15802187,-0.0011472555,-0.0035007123,-0.000593179,8559,0,0.027434826,-0.08438194,-9.788406,8559,0
15802322,-0.0025938135,-0.0009671171,-0.0016589602,135,0,-0.006159565,-0.048144564,-9.791749,135,0
15805363,-0.0028165188,-0.0011160901,-0.0010743858,3041,0,0.012803558,-0.016232938,-9.802864,3041,0
15809322,-0.0006130468,-0.00094854104,0.0003344089,3959,0,0.0304472,-0.018381333,-9.816183,3959,0
15813319,0.0017308182,-0.00063695735,0.0017448284,3997,0,0.030612376,-0.009660927,-9.805147,3997,0
15817314,0.001533579,-0.0010925867,0.0003225494,3995,0,0.0400053,-0.008687112,-9.788366,3995,0
15821347,-0.0012098064,-0.00011561192,0.00012994095,4033,0,0.046289228,-0.051784553,-9.831184,4033,0
15826118,-0.001018066,0.0022963414,0.0026995048,4771,0,0.024830919,-0.049385093,-9.822053,4771,0
15829789,0.0022620494,-0.00025583722,0.0017315126,3671,0,0.014575068,-0.027444338,-9.770393,3671,0
15834754,0.002519799,-0.0024393462,0.000800324,4965,0,0.006608591,-0.03558165,-9.762369,4965,0
15837745,0.0018985192,-0.0016673837,0.0005010081,2991,0,-0.008513251,-0.0332797,-9.789207,2991,0
15842281,0.0012305297,-0.0038974755,9.1625025e-06,4536,0,0.012753328,-0.03704954,-9.823496,4536,0
15846031,-0.0005282224,-0.0011186016,0.002513568,3750,0,0.014138291,-0.021984067,-9.841898,3750,0
15850526,-0.0030860952,0.00059842155,0.0023736139,4495,0,0.01376809,-0.011524762,-9.843614,4495,0
15853667,-0.002463694,-0.0022264419,0.0013503005,3141,0,0.01786456,-0.0327252,-9.821874,3141,0
15858548,0.0011358825,-0.0032523803,-0.00044775495,4881,0,0.0030763005,-0.04769236,-9.776403,4881,0
15861353,0.0016977106,-0.0017677932,-0.00065832894,2805,0,0.014758302,-0.044279844,-9.785029,2805,0
15865585,-0.0018598008,-0.0008004418,0.0020219074,4232,0,0.025661424,-0.022904763,-9.8136835,4232,0
15869334,-0.004553499,0.0002534204,2.321991e-05,3749,0,0.013579721,0.0015446093,-9.768355,3749,0
15873598,-0.0017790102,0.003022763,0.00078444916,4264,0,0.018547092,-0.014560466,-9.759318,4264,0
15877343,-0.0004905303,3.513894e-05,0.0009891643,3745,0,0.03929799,-0.012414624,-9.780177,3745,0
15882256,0.00033192724,-0.0005630932,-0.0021405783,4913,0,0.04359226,-0.0021028053,-9.784243,4913,0
15885636,0.0014116977,0.00047808295,0.0011537131,3380,0,0.021548009,-0.038236275,-9.785431,3380,0
15890423,0.0008471147,-0.0026529985,0.0038720567,4787,0,0.011538749,-0.03446781,-9.792444,4787,0
15893259,0.001087956,-0.0018889536,0.0037529536,2836,0,0.011842883,-0.014249908,-9.766442,2836,0
15897335,0.0011079087,-0.0011013102,0.0014973395,4076,0,-0.0017283114,-0.020716593,-9.757395,4076,0
15901539,0.0011589191,0.0007215031,0.00052443874,4204,0,0.009070112,-0.038915075,-9.786166,4204,0
15905331,0.0020497916,0.0035628434,0.0018335627,3792,0,0.02916459,-0.048925705,-9.788967,3792,0
15909344,0.0016790783,0.0019366002,0.0015360661,4013,0,0.029440928,-0.037398767,-9.7870655,4013,0
15913363,0.0024255523,0.00047524663,-0.00060992537,4019,0,0.014393011,-0.026747853,-9.780436,4019,0
15918588,0.0039681494,0.000116079624,-0.0014576322,5225,0,0.022400972,-0.01678561,-9.766096,5225,0
15921603,0.00021237799,0.0019497086,-0.000820867,3015,0,0.009332451,-0.05409848,-9.779393,3015,0
15926195,-0.0021998193,0.0013380877,0.00042153287,4592,0,0.009287222,-0.07054168,-9.80785,4592,0
15929942,0.00079663284,-0.0014694509,0.002017267,3747,0,0.034773264,-0.051097505,-9.788902,3747,0
15934186,0.0024032986,-0.0011748974,0.0030660424,4244,0,0.0023256692,-0.0016679671,-9.787039,4244,0
15937746,0.0021660612,0.0010483888,0.0012946577,3560,0,0.023853017,0.014444219,-9.803169,3560,0
15942720,0.0001940866,0.0015336265,-0.002574982,4974,0,0.042086534,-0.03280212,-9.823849,4974,0
15946221,0.0030562289,-0.00079282565,-0.0012585323,3501,0,0.017446835,-0.04666453,-9.81159,3501,0
15949759,0.005123559,0.00046148017,0.0023939903,3538,0,0.039175656,-0.0447383,-9.777012,3538,0
15954602,-4.2843363e-05,-0.00012734682,0.0012763178,4843,0,0.031866234,-0.06333376,-9.772674,4843,0
15957745,-0.0008685156,-0.002966676,0.0003308449,3143,0,-0.015253256,-0.07005908,-9.751068,3143,0
15961706,-0.0029669378,-0.0031593645,-0.0003376078,3961,0,-0.018819626,-0.01701675,-9.730068,3961,0
15966608,-0.00012777073,-0.002724463,-0.0013969766,4902,0,-0.0041810954,-0.020200253,-9.774336,4902,0
15969860,0.0032986696,-0.0007466856,-0.00027763413,3252,0,0.012184618,-0.0008129906,-9.794942,3252,0
15973712,-0.00037378666,0.0031682712,-0.0032862485,3852,0,0.044738382,0.032660082,-9.815075,3852,0
15978717,0.002691022,0.0019907663,-0.005276039,5005,0,0.039274223,-0.017585147,-9.846978,5005,0
15981738,0.0021184704,2.299774e-05,-0.0030249555,3021,0,0.024555448,-0.015613906,-9.826157,3021,0
15985855,-0.0006737514,-0.0004933928,-0.0010944554,4117,0,0.027199827,-0.012676913,-9.792486,4117,0
15990553,0.00039061945,-0.0029091323,0.002421136,4698,0,0.027247174,-0.022863315,-9.792603,4698,0
15993799,0.0012438407,0.00012252321,0.0013465538,3246,0,0.035549372,-0.047135778,-9.823074,3246,0
15997819,0.0025448785,0.00044683606,-0.0015985423,4020,0,0.046037674,-0.06395795,-9.822044,4020,0
16002742,0.0018716352,-0.0021829086,-0.0005261707,4923,0,0.019132506,-0.021673448,-9.801212,4923,0
16005972,-0.00138075,-0.00061570934,-0.0014314366,3230,0,0.0019673365,-0.0035966393,-9.786297,3230,0
16010043,-0.002123147,0.0026034364,-0.0017991115,4071,0,-0.008639058,-0.025394125,-9.778725,4071,0
16014645,0.001746984,0.0018089426,-0.003221542,4602,0,-0.014936305,-0.024620436,-9.785099,4602,0
16018026,0.0020986479,-0.0033355956,-0.000425673,3381,0,-0.015014398,-0.030478856,-9.8022175,3381,0
16022134,0.00041681848,-0.0035962763,0.0037617944,4108,0,-0.014807856,-0.0534946,-9.807076,4108,0
16026690,0.0005485932,0.00041154088,0.0022585152,4556,0,0.017782813,-0.055456206,-9.793558,4556,0
16030310,-0.0023680637,0.00081870693,-1.743417e-05,3620,0,-0.005889019,-0.020938184,-9.777254,3620,0
16034284,-0.002776646,-0.00061969296,0.00014176281,3974,0,-0.007015843,-0.006899094,-9.779356,3974,0
16038697,-0.0017320999,2.7286495e-05,0.0008479651,4413,0,0.014555905,-0.017234916,-9.777294,4413,0
16042568,-0.00032205522,0.00058874884,0.0034960473,3871,0,-0.024555214,-0.018051002,-9.818657,3871,0
16046591,0.003438094,0.00089057477,0.004318488,4023,0,-0.016935337,-0.015746288,-9.826159,4023,0
16050643,0.0025629015,-0.00059065974,-0.0015015717,4052,0,0.028222606,-0.01993698,-9.79528,4052,0
16054477,-0.00037065073,-0.0011136526,-0.00030750307,3834,0,0.00968082,-0.0043888614,-9.782631,3834,0
16058636,-0.0018713049,0.0020178477,0.0033542002,4159,0,-0.00998991,1.627579e-05,-9.785297,4159,0
16062592,-0.0011506315,0.0028535118,0.00136684,3956,0,0.017729081,-0.06547113,-9.825588,3956,0
16066556,0.001836811,-0.0009976969,0.0011691332,3964,0,0.0062352037,-0.06345868,-9.816725,3964,0
16070614,0.0012587061,-0.0007732502,0.00043095293,4058,0,0.0012894257,0.0070466567,-9.770386,4058,0
16074653,-0.0045351833,0.001222048,0.00010036044,4039,0,0.010924549,-0.008565852,-9.783394,4039,0
16078536,-0.0023282464,-0.0036417134,-0.0011065056,3883,0,-0.01205541,-0.030986149,-9.770515,3883,0
16082776,1.2718404e-05,-0.0006156546,0.00038030665,4240,0,-0.035547342,-0.004236311,-9.772163,4240,0
16086606,-0.0016784042,0.0029191833,-0.0026943192,3830,0,-0.018156203,-0.027597956,-9.797567,3830,0
16090794,-0.00023007022,-0.00075276586,-0.0050259004,4188,0,-0.021313645,-0.028364608,-9.768862,4188,0
16094761,-0.0010569689,0.00044253914,-0.0021598989,3967,0,-0.03174073,-0.0020060206,-9.773455,3967,0
16098806,-0.0010869917,-0.001507871,-0.0012938675,4045,0,0.022344667,-0.015364031,-9.807444,4045,0
16102710,-0.0011022039,-0.00083189976,-0.0018504403,3904,0,0.033724066,-0.008621944,-9.814768,3904,0
16106749,-0.0012680966,0.0024632425,-0.0028782992,4039,0,0.012403704,-0.03983423,-9.83153,4039,0
16110623,-0.00097374554,0.00092699536,-0.0003724824,3874,0,0.015182599,-0.049221512,-9.847923,3874,0
16114787,-0.0036376144,-0.0005125709,-4.671334e-05,4164,0,-0.002876488,-0.031131275,-9.828301,4164,0
16118787,-0.0051991334,-0.00074243033,-0.0018027878,4000,0,-0.028810844,-0.03999304,-9.800706,4000,0
16122705,-0.0043421127,-0.000116149524,-0.0031787022,3918,0,-0.017866425,-0.025312861,-9.783192,3918,0
16127038,-0.00047634004,0.001007835,-0.0011218812,4333,0,-0.0010742946,-0.036612548,-9.805189,4333,0
16130837,0.002597361,0.004149143,0.00030477293,3799,0,0.017665694,-0.042341217,-9.788498,3799,0
16135148,-0.0006893567,0.0027344057,0.0021464487,4311,0,0.019536795,-0.050719474,-9.765873,4311,0
16139027,-0.0020250939,0.00034001612,0.0019315463,3879,0,0.0026876547,-0.035369307,-9.777609,3879,0
16142848,0.00016867404,-4.1253774e-05,-0.00020015909,3821,0,0.022664167,-0.020886065,-9.764476,3821,0
16146800,0.00026654825,-0.0023234622,-0.000835089,3952,0,0.0395088,-0.022867672,-9.771276,3952,0
16150638,-0.000101368045,-0.0010490064,-0.00015676153,3838,0,0.04692265,-0.024891974,-9.774026,3838,0
16154778,-0.0007663581,0.00019038017,0.00020933934,4140,0,0.03401523,-0.02162449,-9.790726,4140,0
16158653,0.00011127324,-0.0025240507,-0.003798534,3875,0,0.028564833,-0.022560662,-9.7914295,3875,0
16162713,0.0009447757,-0.0020111357,-0.0020321459,4060,0,0.034036685,-0.013482885,-9.756558,4060,0
16166735,0.0015840493,0.0006614995,-0.00032068728,4022,0,0.008847321,-0.019213747,-9.754326,4022,0
16170692,2.932913e-05,-0.0008155422,-0.0015575284,3957,0,0.02011734,-0.062969215,-9.77857,3957,0
16174630,0.00030871626,0.00081597076,-0.0011248877,3938,0,0.011741549,-0.03683975,-9.785217,3938,0
16178786,0.0042083003,0.0007496464,-0.0024112524,4156,0,-0.017941965,-0.0049990015,-9.778612,4156,0
16182806,0.0016000464,-0.0027732258,-0.0013544861,4020,0,0.00068934215,-0.030016627,-9.819857,4020,0
16186624,-0.0005978164,-0.0013438137,-0.00016991439,3818,0,0.02018864,-0.052128278,-9.835188,3818,0
16190747,0.0014958238,0.0011180013,0.00075328466,4123,0,-0.008214338,-0.0649545,-9.813092,4123,0
16194782,0.00037731061,0.000976604,0.0007945365,4035,0,-0.036291115,-0.06965135,-9.826593,4035,0
16198649,-0.003127214,0.0018112472,-0.0024513619,3867,0,0.0017523149,-0.0588583,-9.796672,3867,0
16202787,0.0001835014,0.0026778574,-0.0026132548,4138,0,0.014794306,-0.05680181,-9.776008,4138,0
16206623,0.0008257984,0.0017259017,-0.0021942335,3836,0,0.024174001,-0.028173339,-9.798323,3836,0
16210526,-0.0050922697,-0.00082875375,-0.0009156325,3903,0,0.025945574,0.017037988,-9.793514,3903,0
16214750,-0.0029274735,-0.001232466,0.0027902112,4224,0,-0.006048703,-0.010756375,-9.805149,4224,0
16218517,-0.003332426,-0.0005349664,0.0015369175,3767,0,0.0065052817,-0.035296142,-9.808432,3767,0
16222490,-0.0017030168,-0.0013920933,-0.0005637484,3973,0,0.024165908,-0.053219732,-9.779259,3973,0
16226734,0.0014899705,0.00046408435,0.0007466786,4244,0,0.03937767,-0.06658013,-9.76355,4244,0
16230606,-0.0016284893,-0.00019003417,0.0029600915,3872,0,0.038893975,-0.033367783,-9.782202,3872,0
16234589,-0.0047866497,0.000442467,0.0014431456,3983,0,0.005450696,-0.028688805,-9.792751,3983,0
16238782,-0.0040917783,0.000345731,-0.0011287094,4193,0,0.00657413,-0.026447142,-9.780959,4193,0
16243002,-0.0015262223,-0.0029378426,-0.0017469802,4220,0,-0.0005218694,0.014132933,-9.769663,4220,0
16246725,-0.0006912336,-0.0022349583,0.0006985798,3723,0,-0.0019086401,0.015325139,-9.760409,3723,0
16250700,0.0018960974,-0.0002024525,-0.0015224341,3975,0,-0.0015240989,-0.019379862,-9.755031,3975,0
16254688,0.0022894824,0.000719764,-0.0035585314,3988,0,-0.0026662843,-0.034297775,-9.774925,3988,0
16258501,0.002717384,0.002288168,0.00096689037,3813,0,0.012913186,-0.03417679,-9.776742,3813,0
16262336,0.0026781543,0.0016416514,0.00025714724,3835,0,0.00024498324,-0.015878713,-9.784156,3835,0
16266721,0.0026683917,-0.0022499056,0.0012070928,4385,0,0.03403869,-0.0068348525,-9.760902,4385,0
16270621,0.0022800355,-0.0035373678,0.0023277572,3900,0,0.033220254,-0.022288587,-9.72929,3900,0
16274337,0.0012143324,0.00030300382,0.0031549025,3716,0,0.008573657,-0.03773111,-9.785423,3716,0
16278591,4.4989e-05,0.0015246728,0.0029232027,4254,0,0.009306015,-0.03739768,-9.783371,4254,0
16282701,-0.0013273983,-0.0014947852,-0.00011617872,4110,0,-0.016148355,-0.03286717,-9.770309,4110,0
16286688,-0.00057783263,-0.0011107535,-0.0010208088,3987,0,0.021353595,-0.060593072,-9.787639,3987,0
16290712,-0.0028168058,0.0007047468,-0.001680983,4024,0,0.0671534,-0.040808506,-9.803873,4024,0
16294657,-0.0029687497,0.001484211,0.0010762683,3945,0,0.035496492,-0.01413965,-9.804825,3945,0
16298657,0.0009899965,0.0018625151,0.0023558736,4000,0,0.030493781,-0.017937688,-9.765808,4000,0
16302337,0.0026293332,0.0002042939,0.0022660904,3680,0,0.04173069,-0.02452159,-9.770415,3680,0
16306457,0.0016661743,0.000558398,0.0044968603,4120,0,0.021329608,-0.018964684,-9.78438,4120,0
16310603,0.00017771841,0.0007024801,0.0031917545,4146,0,0.031194992,-0.00367312,-9.796202,4146,0
16314523,-0.004284103,0.00014134683,-0.000300738,3920,0,-0.0070328657,-0.010173522,-9.801346,3920,0
16318542,-0.004188821,0.0048654983,-0.00080638507,4019,0,-0.059054896,-0.007144756,-9.773503,4019,0
16322640,0.00042301207,0.005095132,0.0010568945,4098,0,-0.037812296,-0.017527174,-9.761385,4098,0
16326594,-0.00081935106,-0.0036646938,0.0013654889,3954,0,-0.002061041,-0.023953242,-9.767796,3954,0
16330600,0.0034976448,-0.005592215,-0.00010892614,4006,0,0.014687361,-0.029160902,-9.767679,4006,0
16334978,0.00571792,0.00071876583,9.7735356e-05,4378,0,0.012070471,-0.03096592,-9.792362,4378,0
16338847,0.0018145761,-0.00011370465,0.001739092,3869,0,0.020778483,-0.0020889854,-9.820289,3869,0
16342676,0.0014066157,1.4799855e-06,0.0023474959,3829,0,0.0122048855,-0.016049314,-9.77453,3829,0
16346744,0.0003828407,4.598849e-05,0.0019036,4068,0,0.023335995,-0.05642513,-9.784688,4068,0
16350933,0.00069519854,-0.0005592888,-0.00040739778,4189,0,0.035566702,-0.039343443,-9.829012,4189,0
16354552,0.0018607927,0.0014652438,0.0017404193,3619,0,0.024772292,-0.02081825,-9.807817,3619,0
16358328,0.0016451436,0.00089196535,0.0037138893,3776,0,0.02270384,-0.03167454,-9.782108,3776,0
16362585,0.00061349326,-0.00060455885,0.0016456466,4257,0,0.0049928986,-0.046919186,-9.782593,4257,0
16366659,-0.0022822334,-0.00063157734,-0.00014642792,4074,0,-0.004016055,-0.03744055,-9.805868,4074,0
16370749,-0.005156163,-0.000714903,-0.00019534721,4090,0,0.016971767,-0.029338792,-9.784049,4090,0
16374835,-0.005041025,-0.0014004884,0.0003241616,4086,0,0.060009014,-0.040665656,-9.792706,4086,0
16378592,-0.0036773935,0.0009443298,-0.0019281332,3757,0,0.05174364,-0.031916164,-9.796475,3757,0
16382631,-0.0011301473,0.002099248,-0.00035634558,4039,0,0.023083584,-0.027880762,-9.785304,4039,0
16386573,0.0028519589,0.00027999657,0.0029706873,3942,0,0.033583693,-0.017050868,-9.787397,3942,0
16390342,0.0013037232,0.0027509576,0.0036691516,3769,0,0.018514398,-0.019232398,-9.769638,3769,0
16394675,-0.0004949803,0.0054465705,0.001323344,4333,0,0.0104153585,-0.05809945,-9.782361,4333,0
16398541,0.0018561343,0.002872143,-0.00028248562,3866,0,0.04545612,-0.07178794,-9.780951,3866,0
16402659,0.0029347218,-0.0005848287,-0.0008938798,4118,0,0.048959922,-0.05520003,-9.7882395,4118,0
16406748,-0.001448036,-0.0022205717,-0.0012145414,4089,0,0.049383897,-0.056125376,-9.796204,4089,0
16410720,-0.003584457,-0.0010104239,0.0023738914,3972,0,0.049079046,-0.03964088,-9.812574,3972,0
16414716,-7.12904e-05,0.002139203,-2.3048604e-05,3996,0,0.038295973,-0.011186145,-9.8336735,3996,0
16419060,0.0015190124,-0.0009740846,-0.001807229,4344,0,0.010965208,-0.033376943,-9.81685,4344,0
16422957,-0.001452585,0.00010832557,0.0009414722,3897,0,-0.0030764663,-0.024838598,-9.803929,3897,0
16426966,-0.0006299494,0.003370272,0.001674026,4009,0,-0.012683747,-0.024699783,-9.799423,4009,0
16430856,0.0039037077,-0.0010860835,0.0020978923,3890,0,0.0015838572,-0.025091434,-9.790615,3890,0
16434723,0.003463449,-0.001966452,0.00020420541,3867,0,0.024742698,0.008896294,-9.775509,3867,0
16438772,0.0021598607,-0.0012843631,-0.00017285069,4049,0,0.0068538934,-0.014106835,-9.782141,4049,0
16443123,0.0011605059,-0.00015196581,-0.0039912243,4351,0,-0.015814237,-0.06597186,-9.820415,4351,0
16446774,0.00033739134,-0.0007903694,-0.0044254754,3651,0,-0.014694044,-0.07096691,-9.83841,3651,0
16450818,0.00044725963,-0.0017954658,0.0008396722,4044,0,0.027120313,-0.03321598,-9.823793,4044,0
16454926,-0.0013704698,0.002282832,0.0023025842,4108,0,0.04255464,-0.018525824,-9.761856,4108,0
16458949,-0.0010897617,0.001321373,0.00023549936,4023,0,0.01087345,-0.019087406,-9.743357,4023,0
16462963,-0.003008961,-0.0016839346,-0.0013237365,4014,0,0.033435576,-0.031548988,-9.78001,4014,0
16467132,-0.0042399443,0.002351662,-0.0010840507,4169,0,0.029532919,-0.046313442,-9.790062,4169,0
16471008,0.0021434599,0.0015364886,0.0020976819,3876,0,-0.00798055,-0.013278688,-9.797273,3876,0
16475119,0.0031408134,0.00052633946,-5.4291475e-05,4111,0,0.0026337362,0.015753856,-9.806628,4111,0
16479069,0.0007165047,0.0011598204,-0.002347862,3950,0,-0.0075023975,0.01019478,-9.817326,3950,0
16483084,0.0009475922,0.00016562603,0.0007938078,4015,0,0.030102037,-0.02996207,-9.812801,4015,0
16487093,0.0011993567,-0.0013462631,0.0017501812,4009,0,0.045287106,-0.042914625,-9.793213,4009,0
16491633,0.00089164404,-0.00019323893,0.0029710908,4540,0,-0.005176085,-0.03992148,-9.794721,4540,0
16495176,-0.0011341632,0.002035477,0.00013416367,3543,0,0.015437732,-0.031529207,-9.814096,3543,0
16499112,0.00018818286,0.0014420636,-0.0023759615,3936,0,0.030289985,-0.0154543035,-9.809452,3936,0
16503129,-0.0021668437,-0.0010477079,0.00034501476,4017,0,0.00973105,-0.026338933,-9.813604,4017,0
16507359,-0.0010592536,-0.0014510815,0.0009772024,4230,0,0.012762481,-0.054788917,-9.784599,4230,0
16511296,0.002870044,-0.0006975526,-0.0026373516,3937,0,0.01361369,-0.048203506,-9.765436,3937,0
16515308,0.0015176388,-0.0033420534,-0.0018288759,4012,0,0.02951692,-0.038646534,-9.785041,4012,0
16519300,0.0025693085,-0.0028430088,-0.0016960822,3992,0,0.017152252,-0.07226013,-9.790827,3992,0
16523679,0.0038357428,-0.00079478446,-0.0013557085,4379,0,-0.0058881263,-0.056916054,-9.794007,4379,0
16527585,0.002997778,0.0021061744,0.0015140515,3906,0,0.03373247,-0.005542692,-9.778383,3906,0
16531515,0.00037433117,0.00365877,-0.00011873945,3930,0,0.053768814,0.0001642229,-9.765727,3930,0
16535313,0.0019138702,-0.00036987106,0.0012769435,3798,0,0.0002953541,-0.012011615,-9.793625,3798,0
16539653,5.2228686e-05,-0.0022548877,0.0018142576,4340,0,-0.030381927,-0.008621303,-9.789124,4340,0
16543489,-0.0015926762,0.0013616466,-0.00091549684,3836,0,0.014428219,-0.019151017,-9.765107,3836,0
16547430,-0.00028355472,0.002497879,0.000121663106,3941,0,0.046519145,-0.016582364,-9.7775,3941,0
16551670,-0.0018767307,-0.0001290911,0.00020876732,4240,0,0.026514864,-0.0043286663,-9.770215,4240,0
16555566,-0.004413081,-0.0023153087,-0.00089181337,3896,0,0.03291998,0.0050902283,-9.777322,3896,0
16559782,-0.0044724676,-0.0008312767,-0.0022415621,4216,0,0.022868644,-0.0068208235,-9.790953,4216,0
16563628,-0.0041111326,0.00021520031,-0.00027782752,3846,0,0.017517863,-0.02666679,-9.795019,3846,0
16567627,-0.004247351,0.0010310063,-0.0027458551,3999,0,0.029205497,-0.02431584,-9.782797,3999,0
16571956,-0.00024104075,0.001960834,-0.0066872137,4329,0,0.04105705,-0.035961352,-9.781126,4329,0
16575742,0.0032185442,0.0005852032,-0.0018490143,3786,0,0.0038751904,-0.07697919,-9.790941,3786,0
16579654,0.0005516344,0.00349374,0.0018194991,3912,0,-0.008760564,-0.037763633,-9.783268,3912,0
16583933,-0.0019248208,0.005950126,0.0043010986,4279,0,0.033896357,0.01689838,-9.793256,4279,0
16587729,0.0010943383,0.0019286931,0.0023436963,3796,0,0.034441967,0.004021534,-9.802908,3796,0
16591719,-0.0022485855,-0.00045643433,-0.00066611264,3990,0,0.046028182,-0.013191208,-9.8046465,3990,0
16596054,-0.0050470135,-0.00018571508,-0.0004761782,4335,0,0.04009913,-0.028263956,-9.799548,4335,0
16599669,-0.002453255,0.0031570857,-0.0015392419,3615,0,0.012693396,-0.015405579,-9.797107,3615,0
16603625,-0.0012116636,0.0021263764,-0.0017036991,3956,0,0.011580044,-0.03306122,-9.800779,3956,0
16608007,-8.118903e-05,0.0014955875,-0.0010717133,4382,0,0.027025675,-0.030582046,-9.800309,4382,0
16611705,-0.00036156637,0.0048235967,-0.0013777158,3698,0,0.009710927,-0.024578772,-9.818903,3698,0
16615619,-0.0006039356,0.0014470979,-0.00044245392,3914,0,-0.0020759883,-0.03548584,-9.814042,3914,0
16620027,0.0022975786,0.0016649582,-0.00021395452,4408,0,-0.002701323,-0.03154344,-9.781155,4408,0
16623665,0.004522043,0.0029732292,-0.001973357,3638,0,0.0016038308,-0.044416867,-9.795654,3638,0
16627713,0.002534448,0.0022465244,-0.0026802255,4048,0,0.012376977,0.003519902,-9.798216,4048,0
16631980,-0.00033499862,0.0016290299,-0.002166004,4267,0,0.016755126,-0.007634923,-9.786971,4267,0
16635742,-0.0003282359,-0.001055993,-0.0018675742,3762,0,0.014592062,-0.0479238,-9.810579,3762,0
16639764,-0.00037350404,-0.0007609909,-0.001932913,4022,0,0.00361207,-0.045330107,-9.814471,4022,0
16643972,-0.002077925,0.00094405666,-0.0011786511,4208,0,0.040226907,-0.052962143,-9.794603,4208,0
16647752,-0.0026519396,0.00060968864,0.0011276,3780,0,0.030462999,-0.024200724,-9.797396,3780,0
16651704,-0.00302326,0.001265294,7.4032905e-05,3952,0,0.02111018,-0.019194633,-9.793938,3952,0
16655965,-0.0025188825,0.0025408594,-0.0010454695,4261,0,0.039807495,-0.035223506,-9.780699,4261,0
16660096,-0.0018472575,0.0013181485,-4.714525e-05,4131,0,0.035445694,-0.031141339,-9.785408,4131,0
16663858,-0.00085966673,0.00019624417,0.00018162405,3762,0,0.020823147,-0.018170817,-9.801586,3762,0
16668045,0.00047925668,0.00014175814,0.0016827428,4187,0,-0.004200853,-0.0123484135,-9.821206,4187,0
16671991,-0.0024790268,0.00023590565,-0.00012577446,3946,0,0.019857815,-0.025334798,-9.805969,3946,0
16676101,-0.0006249271,-0.0018906124,-0.0025835058,4110,0,0.006098678,-0.02899018,-9.808394,4110,0
16680090,0.0030571863,-0.00215719,-0.0012545402,3989,0,-0.0043176264,-0.042427547,-9.816088,3989,0
16684132,0.00089757657,-0.00047325902,0.0011096933,4042,0,-0.001142581,-0.047380783,-9.793326,4042,0
16688124,0.0014465693,-0.0017254142,0.0023223108,3992,0,-0.0092768045,-0.050436646,-9.785725,3992,0
16692232,0.0015868105,-0.00014401146,0.0010805905,4108,0,0.0020102998,-0.06678647,-9.785086,4108,0
16696209,0.0018994302,0.0038940078,-0.0007696531,3977,0,0.029805934,-0.05377362,-9.787672,3977,0
16700014,0.0027257905,0.0033646955,0.00013140876,3805,0,0.020200789,-0.042641334,-9.762747,3805,0
16704085,0.001875846,-0.00081474363,-0.0011329895,4071,0,-0.006717768,-0.026588222,-9.744047,4071,0
16708119,0.0003319887,0.0009257555,-0.00221578,4034,0,0.0035566634,-0.010699237,-9.779861,4034,0
16711995,2.5447674e-05,0.0041300408,-0.0006169635,3876,0,-0.009357226,-0.001424581,-9.801481,3876,0
16716002,-0.00012591493,0.0008053611,0.00039870504,4007,0,-0.00981844,-0.00060479343,-9.797958,4007,0
16720019,0.00028621187,-0.0018962757,-0.0012136387,4017,0,0.030116614,0.005180771,-9.790222,4017,0
16724083,0.0016468861,0.00042198782,-0.0015961971,4064,0,0.034575716,0.011573345,-9.770571,4064,0
16728214,-0.00018185409,0.0016691155,-0.00020610796,4131,0,-0.0037855697,-0.022883698,-9.785883,4131,0
16732010,-0.002752803,-0.00028307713,-0.0006311825,3796,0,0.001271863,-0.056717373,-9.81029,3796,0
16735954,-0.00030473352,-0.0009663952,-0.0007323684,3944,0,0.048356272,-0.028744455,-9.84144,3944,0
16740067,0.00077776634,-0.0038428872,-6.914867e-05,4113,0,0.056964524,0.013075385,-9.847854,4113,0
16744099,-0.0011210898,-0.0048296046,-0.00043854635,4032,0,-0.0159462,0.009792321,-9.802701,4032,0
16748117,0.00051915593,-0.00065533107,0.0002714071,4018,0,-0.020806398,-0.014149262,-9.771452,4018,0
16752200,-0.000724198,0.00021927852,-0.0013252872,4083,0,0.027364213,-0.026405472,-9.770784,4083,0
16756247,-0.0044065053,-0.00053290185,-0.0014633744,4047,0,0.032784797,-0.016773831,-9.771889,4047,0
16760294,-0.0021887745,0.0012941501,0.0010680583,4047,0,0.017966812,-0.039572697,-9.740633,4047,0
16764544,-0.00083076535,0.0021564544,-0.0025657131,4250,0,0.030782796,-0.04122053,-9.78195,4250,0
16768927,-0.0023509045,-0.00055969245,-0.0011375053,4383,0,0.0460544,-0.030348709,-9.804232,4383,0
16772835,-0.0019419894,0.0008695306,-0.000534105,3908,0,0.02086116,-0.05248873,-9.818421,3908,0
16776747,0.0005600799,0.00028693455,-0.0042246017,3912,0,0.03579657,-0.048487414,-9.817952,3912,0
16780711,0.003014501,-0.0025487351,-0.0031970392,3964,0,0.05963523,-0.029711235,-9.761115,3964,0
16785036,0.0023734902,-0.00017585348,-0.0023582936,4325,0,0.023470983,-0.039719045,-9.770004,4325,0
16788784,0.0024585777,0.0037923895,-0.0012454786,3748,0,0.0043230825,-0.055157147,-9.808645,3748,0
16792830,0.0031051366,0.0075350036,0.0013914533,4046,0,0.027847443,-0.032462142,-9.815678,4046,0
16797009,-0.001079503,0.0027709422,0.0010383882,4179,0,0.047052026,-0.0024128752,-9.772226,4179,0
16800813,-0.0019644534,0.00023105244,-0.00045636887,3804,0,0.00163747,-0.000549937,-9.77882,3804,0
16804831,-0.001847241,0.002520582,-0.0009641109,4018,0,-0.024578732,0.001038916,-9.809578,4018,0
16808992,-0.0041188286,-0.0013045892,-0.0016624917,4161,0,0.029072817,-0.006379049,-9.789045,4161,0
16812766,-0.002442848,-0.0006457792,-0.002051416,3774,0,0.067541726,0.0020860154,-9.780094,3774,0
16816807,-0.0009624488,0.00039524437,-0.00235909,4041,0,0.06904782,-0.004919322,-9.807524,4041,0
16821004,-0.0002530144,-0.0032852376,0.00014928104,4197,0,0.025793405,-0.051779583,-9.802214,4197,0
16824815,0.0025450878,-0.003614238,0.0039919936,3811,0,0.031526554,-0.053486455,-9.776747,3811,0
16828821,0.0021283391,-0.002320803,0.0035126242,4006,0,0.039768018,-0.024752367,-9.754784,4006,0
16833058,0.0015921062,-0.0008051828,-0.0009215015,4237,0,0.017988218,-0.023858834,-9.778938,4237,0
16836799,0.002978426,0.0018647816,-0.0025469381,3741,0,0.022459894,-0.03415963,-9.805071,3741,0
16840796,-0.00015230225,0.0029582833,-0.0003241107,3997,0,0.033501722,-0.006090463,-9.797073,3997,0
16845093,-0.0016996185,0.0015331932,0.0012808345,4297,0,0.03898105,0.006767595,-9.79166,4297,0
16848785,-0.001153513,0.0025312838,0.0014479597,3692,0,0.020923503,-0.021233808,-9.781683,3692,0
16852839,-2.2664304e-05,0.0009816585,-0.00039295468,4054,0,0.027271256,-0.03253292,-9.78693,4054,0
16857044,0.002563285,-0.0016727162,-0.00022905113,4205,0,0.036310673,-0.03527602,-9.778635,4205,0
16860788,0.0025253894,4.5569264e-05,0.0038365684,3744,0,0.027055629,-0.011979645,-9.780029,3744,0
16864816,0.0012362001,0.0028684887,0.0044474825,4028,0,-0.006620095,-0.0015959181,-9.807089,4028,0
16868999,-0.0017144253,0.0056838184,-0.0002644469,4183,0,-0.0072599063,-0.018418275,-9.812168,4183,0
16872832,-0.00240608,0.0052924724,-0.0006530313,3833,0,-0.0002110228,-0.017518386,-9.801203,3833,0
16876945,0.00043772487,0.001920417,0.0022477852,4113,0,0.033777706,-0.012198417,-9.777438,4113,0
16881022,0.00096096314,0.0014233398,0.0023044902,4077,0,0.07379767,-0.023678053,-9.795865,4077,0
16884835,-0.0019887926,0.0022539028,0.0001600706,3813,0,0.022200044,-0.039359253,-9.830846,3813,0
16888802,-0.002013412,6.994789e-05,-0.0015932936,3967,0,0.007386335,-0.041975863,-9.80254,3967,0
16893008,0.0015971181,0.0005185675,-0.001668433,4206,0,0.02450036,-0.013084461,-9.782337,4206,0
16896798,0.0024290788,0.0012717454,-0.002292653,3790,0,0.025409602,-0.015153539,-9.789829,3790,0
16900848,-0.0011518255,-0.0010187472,0.00044522402,4050,0,0.03645305,-0.038356494,-9.80707,4050,0
16904966,-0.0035467504,0.00050582277,0.0006134692,4118,0,0.05300829,-0.0184933,-9.823636,4118,0
16909014,-0.002041898,0.0024686728,0.00055444887,4048,0,0.0406077,-0.021783149,-9.831186,4048,0
16912852,0.00028959854,0.0005119267,0.0019276009,3838,0,0.012282751,-0.047009755,-9.834806,3838,0
16917011,0.001337505,0.00086119707,0.00036789128,4159,0,0.025724439,-0.051232174,-9.811963,4159,0
16920796,0.0021915813,-0.00021304493,-0.0004787829,3785,0,0.023654955,-0.0416914,-9.773462,3785,0
16924968,0.00028444483,-0.0007033162,0.00013466884,4172,0,0.010406889,-0.032797277,-9.78683,4172,0
16929015,-0.0003116266,0.00027060998,0.0018983088,4047,0,0.052270174,-0.06484501,-9.814226,4047,0
16932837,0.0040975185,0.0007424744,-0.0018059852,3822,0,0.07757522,-0.083304405,-9.827664,3822,0
16936802,0.0018511699,0.0005764339,-0.0027478554,3965,0,0.05884763,-0.047775067,-9.83202,3965,0
16940975,-0.0012536028,-0.0020501693,-0.0011319905,4173,0,0.042440172,-0.05496782,-9.798424,4173,0
16944981,8.244411e-05,-0.0014494731,-0.0018241156,4006,0,0.019026674,-0.060607526,-9.778351,4006,0
16948951,-0.0009070242,0.0010366705,0.00043947817,3970,0,0.03022602,-0.030980816,-9.798735,3970,0
16953058,-0.0025513477,0.00062766246,0.0005655248,4107,0,0.070207536,-0.03421847,-9.827061,4107,0
16956934,0.0016373005,-0.0009303906,0.002127207,3876,0,0.055730358,-0.034821175,-9.81379,3876,0
16960806,0.00032199823,-0.0019066853,0.0013336455,3872,0,0.029547252,0.008174265,-9.817944,3872,0
16965090,-0.0024374216,-0.0013284748,0.00083366985,4284,0,-0.005342816,-0.0126930075,-9.842457,4284,0
16968815,-0.0003235834,-0.0007013611,0.002050786,3725,0,-0.014611632,-0.035216905,-9.816961,3725,0
16972833,-0.00092611386,0.00060882885,0.0009010411,4018,0,0.027396427,-0.020248016,-9.791253,4018,0
16977012,-4.580606e-05,-0.00028788357,0.00039850408,4179,0,0.04953944,-0.024146166,-9.832258,4179,0
16981038,0.0020944267,-0.0025961553,0.00021198476,4026,0,0.021183996,-0.024807284,-9.818438,4026,0
16985045,0.002021067,-0.0028038332,0.0037504695,4007,0,0.0013390086,-0.022789333,-9.749891,4007,0
16989070,0.00025832068,-0.0024526264,0.003667711,4025,0,-0.00059307,-0.014298392,-9.772403,4025,0
16993048,0.00097372587,0.0006265096,0.0012456422,3978,0,-0.03687742,-0.002530823,-9.791414,3978,0
16996829,0.0003642618,0.0017471497,0.002201575,3781,0,-0.0014484935,0.007182169,-9.79385,3781,0
17001014,-0.0012614739,0.00028054338,0.00095883256,4185,0,0.020381244,0.012428811,-9.786859,4185,0
17004986,-0.0008674863,-0.0007020895,-0.0028124873,3972,0,-0.012287779,-0.0009047169,-9.773092,3972,0
17008805,0.00012720683,-0.0013217635,0.00067828683,3819,0,0.017697183,-0.008235969,-9.786149,3819,0
17013049,-0.0011203593,-0.00028490686,0.001116525,4244,0,0.048679348,0.000540719,-9.767977,4244,0
17016806,-0.0009843068,0.0024344563,0.0013532207,3757,0,0.026220376,-0.01861078,-9.742173,3757,0
17020994,0.0013139969,0.005285062,0.004922649,4188,0,-0.028061444,-0.03426256,-9.770252,4188,0
17025114,0.0018662416,0.0054317154,0.0005643382,4120,0,-0.0026389065,-0.0045501497,-9.781427,4120,0
17028797,0.0017481556,-0.00058198697,0.00055315584,3683,0,0.02208968,0.0015493371,-9.774491,3683,0
17032941,-0.0024355163,-0.0020962127,-0.00013375671,4144,0,0.010542712,-0.022773705,-9.814795,4144,0
17036966,-0.0024192238,0.0011652096,-0.002733577,4025,0,0.007757767,-0.025764678,-9.804543,4025,0
17040796,0.0012903654,-0.0004899805,9.407694e-05,3830,0,0.0025625909,-0.02108773,-9.768974,3830,0
17045015,0.005119508,-0.0020317815,-0.0032749653,4219,0,0.005747681,-0.042496726,-9.793513,4219,0
17049039,0.005861322,-0.00075421104,-0.0034106085,4024,0,0.020348232,-0.045548797,-9.814688,4024,0
17053102,0.003368474,0.0006883123,0.0011985847,4063,0,0.028847883,-0.02960854,-9.791599,4063,0
17057138,0.0008437779,0.001891433,0.0009887632,4036,0,0.044665653,-0.008010573,-9.757969,4036,0
17061011,-0.0026795033,0.0028096512,-0.0002155325,3873,0,0.041739963,0.00509533,-9.773294,3873,0
17064929,-0.004409829,0.0008264975,0.0018522416,3918,0,-0.015176773,-0.010035217,-9.799089,3918,0
17068969,-0.0008278829,-0.00024569206,0.004616549,4040,0,-0.013063728,-0.019165931,-9.773499,4040,0
17073027,0.0012785387,0.0008445003,0.0026775156,4058,0,0.035328127,-0.020045165,-9.7789135,4058,0
17077113,-0.0014262608,-0.001856881,0.0010988207,4086,0,0.037081845,-0.020492192,-9.805298,4086,0
17081166,0.0003657415,0.00043990024,-0.00023850719,4053,0,0.010891205,-0.02847169,-9.836143,4053,0
17085104,-0.00094201433,0.0040516676,0.0026678678,3938,0,-0.009500718,-0.039970703,-9.825604,3938,0
17089087,-0.0028767595,0.0033639753,0.0028212594,3983,0,-0.011387689,-0.019900732,-9.77015,3983,0
17093177,-0.0007868093,0.0038809483,-0.0023053992,4090,0,0.011342515,-0.025846837,-9.804833,4090,0
17097318,-0.0009351458,0.0040294207,-0.0032833768,4141,0,0.02826913,-0.053471513,-9.837752,4141,0
17101298,0.00021414077,0.0011139123,-0.0013115986,3980,0,0.030275268,-0.041817345,-9.778356,3980,0
17105255,0.0008531882,-0.0023053444,0.00016066158,3957,0,0.024255978,-0.040777363,-9.768952,3957,0
17109247,0.00048943923,-0.0026038536,-0.0017100532,3992,0,0.022483751,-0.025654148,-9.816971,3992,0
17113250,-0.0011026909,-0.003676924,-0.001845025,4003,0,0.045143127,-0.040764727,-9.836573,4003,0
17117275,-0.004122933,-0.0015904218,0.00021838688,4025,0,0.043426406,-0.05132105,-9.831532,4025,0
17122125,-0.0030970506,-0.00059989013,0.0030339954,4850,0,0.01404308,-0.034425274,-9.805135,4850,0
17125355,-0.0024347918,2.9612833e-05,0.0008311791,3230,0,0.015049425,-0.037811935,-9.79864,3230,0
17130767,-0.0035143446,-0.0012651184,-0.00015212952,5412,0,0.021237046,-0.020313762,-9.8043995,5412,0
17133256,-0.0025286493,-0.000761426,0.0030152637,2489,0,0.00782915,-0.007101581,-9.809138,2489,0
17137250,-0.0007335611,-0.00025624826,0.001405523,3994,0,-0.0040519885,-0.0044194395,-9.78923,3994,0
17142015,0.0012456166,-0.0033188406,0.0020527313,4765,0,0.03029758,-0.03483434,-9.779472,4765,0
17145279,-0.0001251302,-0.0006446085,0.0017486945,3264,0,0.028001674,-0.04623103,-9.801591,3264,0
17150358,-0.00047353999,0.000881039,0.00033787507,5079,0,-0.0090430025,-0.0118294405,-9.825117,5079,0
17153790,0.0017456169,0.0001817074,-0.0008323274,3432,0,0.013166226,-0.022618674,-9.819173,3432,0
17158222,0.0014748955,0.0008922774,-7.085373e-05,4432,0,0.026123147,-0.04656966,-9.795842,4432,0
17161695,0.0048390045,0.0009850209,0.00014984304,3473,0,0.042051837,0.0008022096,-9.803463,3473,0
17165932,0.0009065346,0.00027102197,-0.0025457896,4237,0,0.066232815,0.026752455,-9.8008375,4237,0
17170462,-0.0020875204,0.00017483805,-0.0013415273,4530,0,0.037455887,0.0032015822,-9.769647,4530,0
17173323,0.0025904125,-0.0023324876,-0.00055035,2861,0,0.05704664,0.017490555,-9.76727,2861,0
17178297,0.0043554055,-0.00074190827,0.00087430293,4974,0,0.03901621,0.009478316,-9.789194,4974,0
17181349,0.0047064573,0.0012535282,0.00078884204,3052,0,-0.032237314,-0.005390433,-9.800779,3052,0
17185547,0.0014271806,0.00037189672,-0.0021713201,4198,0,-0.020481084,-0.035398323,-9.794725,4198,0
17190449,-0.0023731573,-0.0023638592,0.00033747003,4902,0,0.007088253,-0.03863799,-9.777597,4902,0
17193642,-0.0011914561,-0.0032817903,0.0006580614,3193,0,0.01468656,-0.002065056,-9.777979,3193,0
17198430,-0.0003931354,-0.0021502462,-0.0034582042,4788,0,0.014796577,-0.013133146,-9.804891,4788,0
17202011,-0.0019214647,-0.0038158104,-0.0020610404,3581,0,0.03683035,-0.038745258,-9.818975,3581,0
17206143,-0.0010594304,-0.004985229,-0.00083719805,4132,0,0.04127718,-0.043746926,-9.771114,4132,0
17209719,-0.0020889596,-0.00484429,0.0014423415,3576,0,0.009488968,-0.05363863,-9.769691,3576,0
17213851,-0.00043145264,-0.001014696,0.00051996415,4132,0,-0.023083417,-0.051365614,-9.800119,4132,0
17218474,-0.0021380514,0.0014190354,-0.0014722496,4623,0,-0.0005685948,-0.015716434,-9.804226,4623,0
17221708,-0.00338073,-0.00040194357,-0.0003817559,3234,0,0.03243289,-0.023064917,-9.795405,3234,0
17226519,-0.0006173963,-0.0016556465,-0.0025559103,4811,0,0.020964157,-0.033579234,-9.763399,4811,0
17229779,1.7212704e-05,0.0005849873,-0.002427501,3260,0,0.02128613,-0.029260514,-9.775118,3260,0
17234785,-0.0012297113,0.00021670802,0.0015100709,5006,0,0.0072054085,-0.017470915,-9.785009,5006,0
17238113,-0.00019575881,-0.00059348234,0.0017092878,3328,0,0.007958628,0.0130801955,-9.79103,3328,0
17242288,0.0042040474,0.0021556688,0.00021891545,4175,0,0.0024056667,-0.010583357,-9.788467,4175,0
17245693,0.0037277993,0.002337542,0.0020289845,3405,0,0.040838122,-0.012908085,-9.770166,3405,0
17249848,0.0022218153,-7.188917e-05,-0.000753668,4155,0,0.062353022,0.017206144,-9.808045,4155,0
17254240,0.0014166258,-0.001980682,-0.0015284262,4392,0,-0.003355937,0.0030702148,-9.806826,4392,0
17257739,0.0016687606,-0.0004945345,0.0004518428,3499,0,-0.012830352,-0.01789999,-9.773033,3499,0
17262783,-0.0010789735,0.002734616,0.0017056604,5044,0,0.0051160036,-0.003931584,-9.777344,5044,0
17265783,-0.0015374073,0.0029965602,0.0024702267,3000,0,0.020328732,0.008024111,-9.768846,3000,0
17270277,0.00017705714,0.00022563132,0.002206254,4494,0,0.027640723,0.010344687,-9.801021,4494,0
17274018,0.0017811132,-0.0029264933,0.0004521271,3741,0,0.008616753,0.019627847,-9.803672,3741,0
17277743,0.00090003124,-0.003179827,-0.0011374493,3725,0,0.008392406,0.018431915,-9.78684,3725,0
17282678,-0.0010652827,-0.00086916273,0.0022698527,4935,0,0.034063186,-0.0135956835,-9.796127,4935,0
17286543,0.0012158144,0.0032849857,0.0027049165,3865,0,0.05234967,-0.050453562,-9.793077,3865,0
17290542,0.0011465285,0.001743643,-0.00031175886,3999,0,0.032739606,-0.033392802,-9.763033,3999,0
17294603,-0.0009889636,-0.0006443275,-0.0036451253,4061,0,0.0029466818,-0.026008718,-9.758272,4061,0
17298272,-0.0035216075,-0.001364234,-0.00410548,3669,0,-0.016055321,-0.039801873,-9.800304,3669,0
17302330,-0.005095509,-0.0026284258,-0.0025924402,4058,0,-0.036736965,-0.032492124,-9.797585,4058,0
17306594,-0.0045237006,-0.00071627775,1.3060757e-05,4264,0,-0.016381744,-0.03368818,-9.779392,4264,0
17310534,-0.0002812739,-0.0026254754,0.0013982066,3940,0,0.033773787,-0.026828917,-9.785361,3940,0
17314602,0.0027146982,-0.0015992858,-0.0014984813,4068,0,0.038814835,-0.024575943,-9.799515,4068,0
17318604,0.0016969224,0.0024183237,-0.00024374423,4002,0,0.021890972,-0.038519494,-9.773823,4002,0
17322642,0.0010648443,0.00035644916,-0.0013054467,4038,0,0.0005581323,-0.04899551,-9.767216,4038,0
17326600,-0.00089058006,0.0008486413,-0.0028451127,3958,0,-0.0073381206,-0.024042612,-9.785996,3958,0
17331220,-0.0009208384,0.0010309081,-0.00042163648,4620,0,0.010360267,-0.008880513,-9.773724,4620,0
17334667,-0.0003528228,-0.0011755633,0.0014333865,3447,0,0.04203103,-0.029101726,-9.797478,3447,0
17338650,0.00063945114,0.00076306495,0.0020646045,3983,0,0.03505454,-0.026640227,-9.827562,3983,0
17342771,0.0021745549,-0.0023462754,0.0010171802,4121,0,0.029068368,-0.052641407,-9.792968,4121,0
17346668,-0.0010349834,-0.0018124157,-0.00010243958,3897,0,0.02713552,-0.038156867,-9.748784,3897,0
17350626,-0.0022303162,0.0023168018,-0.0012858055,3958,0,0.006921135,-0.008303181,-9.753321,3958,0
17354760,-0.0005875386,-0.0013474831,0.0014393149,4134,0,0.032075755,-0.032697883,-9.7953,4134,0
17358634,0.0013203048,-0.0024950046,0.0046715145,3874,0,0.06589314,-0.044985972,-9.770138,3874,0
17362691,0.0010385758,0.00059499557,0.0040799202,4057,0,0.06231952,-0.0064702667,-9.742056,4057,0
17366731,-0.00087002787,0.0007428203,0.0024796082,4040,0,0.0118019525,-0.017392287,-9.773756,4040,0
17370633,-0.0020054195,0.0005904355,-0.00066275796,3902,0,-0.00955974,-0.060304143,-9.762666,3902,0
17374730,-0.001722757,0.0038601682,-0.0020527244,4097,0,0.0063590533,-0.04387423,-9.757099,4097,0
17378712,0.000981172,0.0029718531,-0.0014902164,3982,0,0.014894182,-0.026682785,-9.803887,3982,0
17382802,0.0030543604,-0.0043964856,0.00035763436,4090,0,0.016360743,-0.020016942,-9.806952,4090,0
17386755,0.0017563769,-0.005060082,0.002215428,3953,0,0.020769194,-0.021104578,-9.770229,3953,0
17390727,-0.0001975766,-0.000873435,-0.000620299,3972,0,0.014734581,-0.038770594,-9.78633,3972,0
17394752,0.001174468,0.00068900175,-0.0014929342,4025,0,0.0072106495,-0.02644739,-9.797074,4025,0
17398700,0.0014172487,0.0028745146,0.00068517047,3948,0,0.015346336,-0.014925096,-9.740655,3948,0
17402801,0.00027598752,0.0008725831,0.0015698086,4101,0,0.0213514,-0.025322217,-9.760515,4101,0
17406628,-0.0028933848,-0.00014487574,0.003394495,3827,0,0.0071685407,-0.011454592,-9.8242,3827,0
17410594,-0.0021287934,0.0038077545,0.005492036,3966,0,0.02768609,-0.026344167,-9.83545,3966,0
17414760,0.0028100563,0.004564004,0.002918647,4166,0,0.047615465,-0.04780833,-9.811525,4166,0
17418713,-9.9203e-05,0.0039918683,-0.0007749514,3953,0,0.027505305,-0.046834797,-9.786842,3953,0
17422672,-0.00077994104,0.0012581405,-0.0033704517,3959,0,0.0161398,-0.03221472,-9.782978,3959,0
17426665,0.000879938,0.001114372,-0.003562547,3993,0,-0.0011753835,-0.03626137,-9.785785,3993,0
17430662,-0.0021420862,0.0012019718,0.0013970172,3997,0,0.0028918167,-0.03970305,-9.796113,3997,0
17434743,-0.0019163254,-0.00045973118,0.003982286,4081,0,0.035153136,-0.034876205,-9.772598,4081,0
17438816,-1.8155237e-05,0.0018866997,0.0010580843,4073,0,0.050431266,-0.03713575,-9.79094,4073,0
17442930,-0.00012261234,-0.00019555543,-0.0006157607,4114,0,0.038571324,-0.018553678,-9.8168545,4114,0
17447020,0.002057763,-0.00030158678,-6.4127045e-05,4090,0,-0.010120108,-0.045761995,-9.8158,4090,0
17450816,0.0019053363,0.0034476623,-0.0009554622,3796,0,-0.035331722,-0.061213203,-9.811985,3796,0
17454803,-0.00019208193,0.0025639748,-0.00012874328,3987,0,-0.0072837127,-0.027960151,-9.783873,3987,0
17458704,-0.00030645917,0.00032122375,-0.0010949348,3901,0,0.010995725,-0.012535245,-9.775688,3901,0
17462855,-0.0035464363,-0.0021364489,-0.002378198,4151,0,0.013238857,-0.00018044192,-9.781345,4151,0
17466694,-0.002954486,-0.001007731,0.0011768033,3839,0,0.024549492,-0.023856092,-9.779991,3839,0
17470624,0.0025330284,0.00234315,0.0011772263,3930,0,0.028354041,-0.023822004,-9.794434,3930,0
17474756,0.0020454612,0.001000068,-0.0004435602,4132,0,0.008922608,-0.014325987,-9.801159,4132,0
17478632,-0.0007786673,0.00040845908,-0.002216655,3876,0,0.008433084,-0.044052992,-9.764595,3876,0
17482673,0.001600129,0.00070257805,0.0010554717,4041,0,0.008033868,-0.039822962,-9.758912,4041,0
17486670,0.0044900733,0.0021008246,0.0050997944,3997,0,0.010708979,-0.03080865,-9.774731,3997,0
17490467,0.0019485429,0.0029320777,0.0025521363,3797,0,0.009426653,-0.03530985,-9.786833,3797,0
17494646,0.0019161878,0.0024423369,-0.00090046145,4179,0,-0.0064597037,-0.010331935,-9.805841,4179,0
17498690,0.0030922266,0.0015518575,-0.000979859,4044,0,0.021719739,-0.011125117,-9.784136,4044,0
17502683,0.0033255657,-0.000865773,-0.0001622441,3993,0,0.057747103,-0.028164975,-9.77717,3993,0
17506836,0.0013692403,0.0011706366,0.00028793243,4153,0,0.037187167,-0.0057537863,-9.80712,4153,0
17510722,0.00043116848,0.0018223614,-0.0013047464,3886,0,0.0047586164,-0.01815465,-9.843442,3886,0
17514961,0.0040985476,0.0014133354,-0.0058883126,4239,0,0.007820981,-0.050264474,-9.836463,4239,0
17518504,0.0037768013,0.0024782855,-0.0051144552,3543,0,0.00903395,-0.060061462,-9.825643,3543,0
17522673,-0.00080986123,0.0017296814,-0.0016388915,4169,0,0.023163093,-0.055992544,-9.797096,4169,0
17526673,-0.001717183,0.0021060416,-0.001221398,4000,0,0.039165497,-0.040886436,-9.757742,4000,0
17530529,-0.0007720079,0.0009033908,0.0009303241,3856,0,0.05465899,-0.04962408,-9.76797,3856,0
17534828,-0.0010922996,-0.0005826891,0.0015192566,4299,0,0.03090371,-0.07261185,-9.738974,4299,0
17538623,-0.00042271253,-0.00068080594,-0.0037286833,3795,0,0.013643535,-0.031759024,-9.767352,3795,0
17542701,-2.9784871e-05,-0.002114063,-0.0020536412,4078,0,0.04091567,0.0028957096,-9.804673,4078,0
17546762,-0.0017082324,-0.00158808,0.0010947555,4061,0,0.05620558,-0.024972953,-9.810946,4061,0
17550674,-0.00095079094,-0.00095722644,0.0008438784,3912,0,0.04835646,-0.015322017,-9.810474,3912,0
17554739,0.0005895904,-0.0027263905,-0.00010898634,4065,0,0.015149012,-0.030516164,-9.7764,4065,0
17558791,0.00072187546,-0.0031859532,-0.0013643992,4052,0,0.0010492698,-0.04439214,-9.763474,4052,0
17562936,0.0016532686,-0.002099667,-8.117811e-05,4145,0,0.043563243,-0.025631014,-9.7761545,4145,0
17566673,0.0029655346,0.00090339564,-0.00039755146,3737,0,0.06720252,-0.055355165,-9.809179,3737,0
17570668,0.0016927221,0.00090990943,-0.0012184893,3995,0,0.030156426,-0.05630859,-9.812202,3995,0
17574538,0.00028113637,0.00087170344,0.00093210064,3870,0,0.017718209,-0.029961504,-9.790966,3870,0
17578447,0.001954572,0.002889986,-0.0013789899,3909,0,0.018576201,-0.03779524,-9.794877,3909,0
17582591,-0.00045044185,0.002347474,-0.0023644322,4144,0,0.035842333,-0.0076884828,-9.778195,4144,0
17586504,-0.0002677357,0.0011525275,-0.0011198029,3913,0,0.020840716,0.00714063,-9.768415,3913,0
17590524,0.0009102418,0.0003071465,-0.0003577131,4020,0,0.010666931,-0.020339355,-9.76677,4020,0
17594854,-0.0014438649,-0.00031177903,-0.0007297509,4330,0,0.039641395,-0.0016307356,-9.779415,4330,0
17598799,-0.0032476627,0.0013125492,0.0013104564,3945,0,0.027568784,-0.03111509,-9.82835,3945,0
17602852,-0.002409048,0.0029078617,0.0024288988,4053,0,0.044471014,-0.05375582,-9.821744,4053,0
17606350,0.00043283423,0.0012864344,0.0019965977,3498,0,0.06970258,-0.012215566,-9.7886915,3498,0
17611014,-0.0016206863,-0.0016854655,0.001962223,4664,0,0.008678453,0.0074926894,-9.793059,4664,0
17614538,-0.00077878876,-0.002310932,-7.834959e-05,3524,0,-0.0097088935,-0.015301156,-9.795506,3524,0
17618640,0.0026172241,-0.0005990006,0.000563575,4102,0,0.033327177,-0.037823364,-9.781626,4102,0
17623128,-0.0020562266,0.0022827333,-0.0021451558,4488,0,0.033240046,-0.02002181,-9.772591,4488,0
17626591,-0.0036572542,0.0020115878,-0.0018082254,3463,0,0.03223506,0.0027622678,-9.77629,3463,0
17630974,-0.001444099,0.0010231307,-0.0027532158,4383,0,0.036447547,-0.00069745874,-9.769432,4383,0
17634834,0.00017871523,0.004020044,-0.0028103583,3860,0,0.026438497,-0.012530288,-9.762439,3860,0
17638596,-0.00077353336,0.000311734,0.0021737234,3762,0,0.013074102,-0.009876657,-9.80555,3762,0
17642773,0.0007524132,-0.0012520743,0.0021980533,4177,0,0.012028926,-0.036904626,-9.823792,4177,0
17646805,0.0022210677,0.0013354789,-0.00015560634,4032,0,0.03092561,-0.035031863,-9.817931,4032,0
17650657,0.0026897485,-0.00011969468,-0.002186123,3852,0,0.009577426,-0.02793289,-9.804817,3852,0
17654706,0.004237816,0.0015499677,-0.0032767092,4049,0,-0.02533583,-0.03863503,-9.777448,4049,0
17658636,-0.00067230844,0.0014186108,0.0016756691,3930,0,0.013832284,-0.030872274,-9.775997,3930,0
17662760,0.0020373047,-0.00090285117,0.003839517,4124,0,0.061590433,-0.048018217,-9.8071575,4124,0
17666812,0.0051542576,-0.00081002805,0.0015556623,4052,0,0.038703565,-0.02131925,-9.803431,4052,0
17671000,0.0006659518,-0.0011126669,-0.0009635255,4188,0,0.022485986,-0.0042310767,-9.7601385,4188,0
17674724,0.0015720583,-0.0019286571,-0.001953523,3724,0,0.03723257,-0.008588253,-9.77334,3724,0
17678758,0.0018910001,0.00075932784,0.0021173435,4034,0,0.034626406,-0.018263258,-9.795892,4034,0
17682975,0.0020645172,0.002777133,0.004217425,4217,0,0.021419268,-0.016583804,-9.785121,4217,0
17686856,0.002681944,-0.0004334063,0.0035084256,3881,0,0.035774432,0.0017130123,-9.775997,3881,0
17690730,0.00016998392,0.0002225405,0.0013746225,3874,0,0.053227223,-0.020444365,-9.771512,3874,0
17694847,-0.0020505213,-0.0014687438,-0.0020124328,4117,0,0.012843999,-0.025930025,-9.787493,4117,0
17698853,-0.003124218,-0.0008200707,-0.0027309868,4006,0,0.025906838,-0.022195026,-9.811318,4006,0
17702775,-0.0021844774,0.0030482272,-7.27548e-05,3922,0,0.06112896,-0.04951147,-9.786967,3922,0
17706851,-0.0022187026,-0.00015632494,0.0018076493,4076,0,0.042887688,-0.039481696,-9.751905,4076,0
17710954,-0.0011863777,-0.0016406637,0.0014783916,4103,0,0.04152749,-0.021260845,-9.7670145,4103,0
17714796,0.00044779567,0.0012256935,0.00033881003,3842,0,0.028369328,-0.048878126,-9.79368,3842,0
17719073,0.0015748596,0.0020201297,0.0021740408,4277,0,0.014440834,-0.039444335,-9.792832,4277,0
17722752,0.0010029633,0.0015827294,0.0034320694,3679,0,-0.001982023,-0.0037194397,-9.793802,3679,0
17727078,-0.0013583093,0.0033028512,-0.002293237,4326,0,0.004282574,-0.0065465234,-9.799713,4326,0
17731134,-0.0004987721,0.0018972654,-0.00091649673,4056,0,0.030909415,0.029763766,-9.805418,4056,0
17735152,0.00010074474,0.0010541591,0.0015260841,4018,0,0.036242343,0.010708695,-9.796228,4018,0
17738857,0.00018735016,0.0024613454,-0.0013439442,3705,0,0.048300546,-0.043873295,-9.768841,3705,0
17743196,0.0015758866,0.00014760868,0.0029429041,4339,0,0.028408816,-0.044435363,-9.7766285,4339,0
17747019,0.0025132191,0.000116357245,0.0028297289,3823,0,0.033455636,-0.047093466,-9.807877,3823,0
17750740,0.0017873188,0.002056529,0.0029159535,3721,0,0.050025076,-0.015993787,-9.809208,3721,0
17754790,-0.00012785426,-0.0003080918,0.0035641263,4050,0,0.04463318,-0.011664039,-9.770591,4050,0
17758979,-0.0006161275,0.00026255767,-0.0011185615,4189,0,0.044812616,-0.034966882,-9.7590885,4189,0
17762924,0.0012710163,0.001594646,-0.00092708995,3945,0,0.03389723,-0.026490662,-9.772626,3945,0
17767124,0.0020723785,0.00093227695,-0.0010099593,4200,0,0.028826024,-0.010265416,-9.791168,4200,0
17770972,-0.0017004483,0.003288887,-0.0027661172,3848,0,0.029745013,-0.04550995,-9.800332,3848,0
17774930,-0.0020375126,0.0019211089,0.0022650964,3958,0,0.037010416,-0.06528353,-9.769602,3958,0
17779047,-0.0008253477,0.000107884705,0.0025870788,4117,0,0.019318514,-0.025921267,-9.760881,4117,0
17782742,-0.0017412641,0.0024754067,0.0004960869,3695,0,0.031332884,-0.0034526293,-9.776085,3695,0
17786759,-0.0036343054,0.0017086071,0.002105706,4017,0,0.08587241,-0.015843011,-9.801243,4017,0
17791967,-0.0027993957,0.0009197071,0.00070323964,5208,0,0.097379394,-0.01931237,-9.80841,5208,0
17794943,0.0013899176,0.003446695,-0.002616699,2976,0,0.050070148,-0.019517371,-9.834635,2976,0
17798763,0.0005902486,0.0030003213,-0.0035101124,3820,0,0.01851201,-0.010341293,-9.832628,3820,0
17803061,0.0022439843,0.0021295412,-0.0018608026,4298,0,0.031640664,-0.014399941,-9.795172,4298,0
17806775,0.0026911588,0.0011548885,6.0396665e-06,3714,0,0.053164415,-0.008371657,-9.765932,3714,0
17811115,-0.002121698,0.0011721624,0.0034373149,4340,0,0.054309987,-0.0153798275,-9.78298,4340,0
17815603,-0.00065002637,0.0029498925,0.004283233,4488,0,0.023283843,-0.03473869,-9.820185,4488,0
17818939,0.0009759362,0.0025335343,0.0024306942,3336,0,0.024724837,-0.04536733,-9.795271,3336,0
17822857,0.0007284756,0.0010084434,-0.0011780892,3918,0,0.0022983085,-0.053165942,-9.799134,3918,0
17827007,0.0032122517,-6.993263e-05,-0.0023271039,4150,0,-0.009989216,-0.04044575,-9.779737,4150,0
17830946,0.00030073078,8.183306e-05,0.0037518572,3939,0,0.0339308,-0.0407824,-9.772711,3939,0
17834751,-0.0028168487,-0.0027834207,0.004491343,3805,0,0.02827767,-0.037352696,-9.802376,3805,0
17839090,-0.001406097,-0.00049464795,0.0007599008,4339,0,0.025504094,-0.056689553,-9.790073,4339,0
17842993,0.0010940651,0.0026227958,-0.0009136645,3903,0,0.007954603,-0.067145064,-9.773973,3903,0
17846988,0.0015230824,0.0031311542,-0.0009902152,3995,0,0.008345377,-0.04738239,-9.760288,3995,0
17851118,-0.0018833557,0.0014847498,-0.00034106107,4130,0,0.028116077,-0.023592988,-9.77041,4130,0
17855008,-0.0012557197,-0.0024757995,-0.00044374517,3890,0,-0.0026382464,-0.019617848,-9.773957,3890,0
17859285,0.003351056,-0.00018640765,0.0030946196,4277,0,-0.00086926075,-0.02909766,-9.7529335,4277,0
17863130,0.0032838774,0.0026976042,0.0025685306,3845,0,0.023406997,-0.054287534,-9.755323,3845,0
17867160,0.0015953741,0.0022041937,0.0014453308,4030,0,0.020899216,-0.07976256,-9.786942,4030,0
17871122,0.001111866,-0.00014554242,0.0007538289,3962,0,0.0051940596,-0.0462443,-9.797186,3962,0
17874760,-0.00046373694,-0.0006802891,-0.0038588806,3638,0,0.0012025075,-0.042522073,-9.784079,3638,0
17879110,-0.0025076715,0.0045549963,-0.0031472093,4350,0,0.012909973,-0.06884995,-9.812918,4350,0
17883153,-0.0010940691,0.0029877233,-0.0017513186,4043,0,0.0106924,-0.06644704,-9.806662,4043,0
17887127,-0.00081689353,-0.0017864994,-0.0014242948,3974,0,-0.0018681306,-0.06669815,-9.766592,3974,0
17891013,-0.0014050961,0.0010484604,0.0018043494,3886,0,-0.0029051735,-0.062394455,-9.779279,3886,0
17894760,-0.00095955504,0.0019118328,0.0016509165,3747,0,0.005188251,-0.060329262,-9.804117,3747,0
17898743,-0.0029255578,-0.0009871845,-0.00081173686,3983,0,-0.0099706715,-0.0293991,-9.808487,3983,0
17902657,-0.003451383,-0.0010357477,-0.00046345918,3914,0,-0.032450855,0.002071471,-9.795011,3914,0
17906784,-0.0008629855,0.0016564879,0.0009953778,4127,0,-0.040486865,-0.020702366,-9.767301,4127,0
17910690,0.0021834888,0.0031480053,0.00084946357,3906,0,-0.033302676,-0.005486951,-9.758984,3906,0
17914659,0.001054233,0.0025663737,0.0013859364,3969,0,0.008109819,0.0007846198,-9.744711,3969,0
17918691,-0.0006204077,-0.0009787816,0.00133576,4032,0,0.0268149,-0.020074897,-9.749606,4032,0
17922624,-0.00095328735,-0.002575096,0.00040068035,3933,0,-0.0035347585,-0.04386335,-9.769305,3933,0
17926614,0.00095817,-0.002189931,-0.0014389601,3990,0,-0.018093297,-0.062569775,-9.764259,3990,0
17930731,0.0031602872,-0.002349987,0.00026176337,4117,0,0.013880732,-0.06819417,-9.763944,4117,0
17934798,0.0015302724,-0.0034375922,0.0030318862,4067,0,0.0144502595,-0.025087379,-9.762114,4067,0
17938743,0.0018722636,-0.0022284256,0.0035203071,3945,0,-0.031110084,0.010917861,-9.76492,3945,0
17942785,0.00034464747,-0.001004267,0.0013893734,4042,0,-0.015236855,-0.04127017,-9.787401,4042,0
17946835,-0.0037309781,0.0004616404,0.0014258876,4050,0,0.0039195735,-0.05365552,-9.806751,4050,0
17950626,-0.0023770335,0.0034729126,0.0033196432,3791,0,-0.002790512,-0.028469764,-9.842559,3791,0
17954775,0.0012696151,0.003883234,0.0007280483,4149,0,-0.008307368,-0.015932444,-9.828534,4149,0
17958670,-0.0010677017,0.0015923353,0.00011814651,3895,0,-0.003329622,-0.016404163,-9.76667,3895,0
17962608,-0.0018881934,0.002031221,-0.0036216872,3938,0,0.011920025,-0.0021376247,-9.76171,3938,0
17966794,-0.0007475073,0.0009871201,-0.0052395593,4186,0,0.022260383,-0.020292874,-9.785979,4186,0
17970657,-0.0012090495,-0.0033867452,-0.00066238054,3863,0,0.050049417,-0.040165797,-9.819094,3863,0
17974715,-0.0017036198,0.00045309679,5.882529e-06,4058,0,0.04275742,-0.024321359,-9.823975,4058,0
17978681,-0.0019350282,0.0042920727,0.0017810477,3966,0,0.037755623,-0.032881353,-9.806026,3966,0
17982730,0.0011547874,0.0027172395,0.0030922266,4049,0,0.03005366,-0.03735783,-9.78967,4049,0
17986642,0.0026637416,0.0028127558,0.0028282506,3912,0,0.02782741,-0.024732206,-9.784622,3912,0
